name,alias,country,region,lat,lon,isni
"1 Decembrie 1918 University, Alba Iulia",Universite 1 Decembrie 1918,Romania,Alba Iulia,46.069,23.5724,
A.S. Pushkin Brest State University,БрДУ імя А. С. Пушкіна; Брэсцкі дзяржаўны ўніверсітэт; Брэсцкі педагагічны інстытут; Берасьцейскі дзяржаўны ўнівэрсытэт; Берасьцейскі пэдагагічны інстытут; Берасьцейскі ўнівэрсытэт; Uniwersytet im. Puszkina w Brześciu nad Bugiem; Брестский государственный университет; Брестский государственный университет им. А. С. Пушкина; Брестский государственный университет им. А.С. Пушкина; Пинское педагогическое училище им. А. С. Пушкина; Берестейський державний університет; Берестейський державний університет ім. О.С. Пушкіна; Брестський державний університет,Belarus,Brest,52.137242,23.67234,
A.T. Still University,,United States of America,Arizona,33.3827,-111.704,
AAB University,,,,42.6394,21.1103,
AGH University of Science and Technology,AGH; AGH; AGH; AGH; AGH; AGH; AGH; AGH; AGH WTU; Akademia Górniczo-Hutnicza im. Stanisława Staszica w Krakowie; Akademie für Bergbau und Hüttenwesen Krakau; Berg- und Hüttenakademie Krakau; Academy of Mining and Metallurgy in Cracow; AGH UST; Académie des mines et de la métallurgie de Cracovie; AGH université des sciences et technologies; AGH Université des Sciences et Technologies; AGH UST; Université des sciences et technologies de Cracovie; Akademia Górniczo-Hutnicza im. Stanisława Staszica; Akademia Górniczo-Hutnicza; Akademia Górniczo-Hutnicza w Krakowie; Гірничо-металургійна академія ім. Станіслава Сташиця; AGH科技大學,Poland,,50.064527777778,19.92375,0000 0000 9174 1488
AKS University,,,,28.35,77.1,
AMA Computer University,AMA Computer University; Pamantasang Pangkomputadora ng AMA,Philippines,General Trias,14.66485,121.01323056,
AMA International University,جامعه أما الدوليه البحرين,Bahrain,,26.1859,50.518,
ANU Research School of Pacific and Asian Studies,,Australia,,-35.2818,149.12,
APIIT,,Malaysia,,3.04833333,101.6925,
ASA University Bangladesh,আশা ইউনিভার্সিটি; ASA University,,,23.7738,90.3663,
Aalborg Business College,,Denmark,Aalborg Municipality,57.0534,9.9098,
Aalborg University,,Denmark,Aalborg,57.015,9.985,
Aalborg University Copenhagen,,Denmark,,55.7309,12.397,
Aalborg University – Esbjerg,,Denmark,Esbjerg Municipality,55.4916,8.44733,
Aalto University,"AYY; TKK; Aalto-universitetet; Helsinki University of Technology; Hochschule für Kunst und Design Helsinki; Taideteollinen korkeakoulu; TAIK; Technische Universität Helsinki; TKK Espoo; TKK Helsinki; UIAH; University of Art and Design Helsinki; Aalto university; Aalto yliopisto; Aalto-högskolan; Aalto-korkeakoulu; Aalto-universitetet; Aalto-yliopisto; Aalto-yliopiston ylioppilaskunta; Helsingin kauppakorkeakoulu; A!; A?; A""; Aalto-korkeakoulu; Innovaatioyliopisto; Innovaatioyliopistohanke; アアルト大学; ヘルシンキ工科大学; ヘルシンキ経済大学; Aalto-yliopisto; Аалто университет; Aalto-högskolan; Aaltouniversitetet; Aalto University; 阿爾託大學",Finland,Espoo,60.186111,24.828611,0000 0001 0838 9418
"Aalto University School of Arts, Design and Architecture","Aalto ARTS; Universidad de Arte y Diseno Helsinki; Aalto-yliopiston taideteollinen korkeakoulu; Helsingin taideteollinen koulu; Media lab; Taideteollinen keskuskoulu; Taideteollinen Korkeakoulu; Taideteollinen oppilaitos; Taideteollisuuden keskuskoulu; Taideteollisuuskeskuskoulu; Taideteollisuuskoulu; Taideteollisuusopisto; TAIK; UIAH; Veistokoulu; École supérieure d'arts, de design et d'architecture d'Helsinki; ヘルシンキ美術大学; ヘルシンキ芸術大学; Aalto-universitetets konstindustriella högskola; Centralskolan för konstflit; Konstflitskolan; Konstindustriella högskolan; Konstindustriella läroverket; Konstindutriella läroverket; ヘルシンキ工芸大学",Finland,Helsinki,60.209444444444,24.976944444444,
Aarhus University,Århus Universitet; Det jydske Universitet; Universitetsundervisningen i Jylland; Aarhus Universitet; Universität Århus; Aarhus Universitet; Universidad de Arhus; Universidad de Århus; Aarhus University; Århusi ülikool; Århusin yliopisto; Universite d'Aarhus; Université d'Århus; Université d’Aarhus; Aarhus University; Università di Århus; Århus universitet; Universitetet i Aarhus; Universitetet i Århus; Aarhus Universitet; Universiteit van Arhus; Universiteit van Århus; Aarhus Universitet; Uniwersytet w Aarhus; Universidade de Århus; Århus universitet; Universitetet i Århus; Aarhus Universitet; University of Aarhus; Aarhus Universitet,Denmark,Aarhus Municipality,56.166666666667,10.2,
"Aarhus University, School of Business and Social Sciences",,Denmark,,56.16166667,10.18224167,
Abant Izzet Baysal University,"Abant Izzet Baysal Universitesi; Abant İzzet Baysal Üniversitesi; Abant İzzet Baysal University; دانشگاه ابانت عزت بایسال; İzzet Baysal üniversitesi. Abant, Turquie; Abant izzet baysal üniversitesi",Turkey,Bolu,40.7142,31.5128,
Abat Oliba CEU University,Universitat Abat Oliba CEU; Universidad Abat Oliba CEU; Universitat Abat Oliba CEU,Spain,,41.41,2.12638889,
Abdelmalek Essaâdi University,جامعة تطوان; جامعة عبد الملك السعدي; جامعه عبد المالك السعدي; Faculté des sciences et Techniques de Tanger; Université Abdelmalek Essaâdi,Morocco,Tangier,35.562,-5.363,
Abdou Moumouni University,Universität Niamey; Abdou Moumouni Dioffo University; Abdou Moumouni University of Niamey; University of Niamey; Université Abdou Moumouni; Université de Niamey,Niger,Niamey,13.50136111,2.09852778,
Aberystwyth University,"Aberystwyth University; Universita v Aberystwythu; Coleg Prifysgol Aberystwyth; Coleg Prifysgol Cymru Aberystwyth; Coleg Prifysgol Cymru, Aberystwyth; Coleg y Brifysgol Aberystwyth; Coleg y Brifysgol, Aberystwyth; Prifysgol Cymru Aberystwyth; Prifysgol Cymru, Aberystwyth; Prifysgol Aberystwyth; Universität Aberystwyth; University of Wales, Aberystwyth; University College of Wales, Aberystwyth; Prifysgol Aberystwyth; Université d'Aberystwyth; Universite du Pays de Galles a Aberystwyth; Université du pays de galles à aberystwyth; Université du Pays de Galles à Aberystwyth; University of Wales, Aberystwyth; University of Wales, Aberystwyth; Aberystwyth University; Universiteit van Aberystwyth; 威尔士暨亚伯里斯威斯大学; 威爾斯大學，亞伯里斯威斯; 威爾斯暨亞伯裡斯威斯大學; 阿伯里斯特威斯大学; アベリスツイス大学; アベリストウィス大学",United Kingdom,Aberystwyth,52.41806,-4.06576,
Abia State University,Abia State University; Abia State University,Nigeria,,5.8281748,7.3960036,
Abkhazian State University,Abchasische Universität; Universität Sochumi; Universität Suchum; Universität Suchumi; Sukhumi State University; Universidad estatal de abjasia; Сухумский государственный педагогический институт; Учебно-научный центр нартоведения и полевой фольклористики АГУ,Georgia,,42.97611111,41.06638889,
Abraham Lincoln University,,United States of America,California,34.0614,-118.301,
Abraham-Geiger-Kolleg,Abraham Geiger Kolleg,Germany,Brandenburg,52.4011,13.0119,
Abubakar Tafawa Balewa University,Abubakar Tafawa Balewa University,Nigeria,,10.3297704,9.8453553,
Academy of Arts in Tirana,Akademia e Arteve; Kunstakademie Tirana,Albania,,41.31789111,19.82020497,
"Academy of Arts, Architecture and Design in Prague","Umělecko-průmyslová škola v Praze; Uměleckoprůmyslová škola; UPŠ; VŠUP; Vysoká škola umělecko-průmyslová v Praze; Vysoká škola uměleckoprůmyslová; Academy of Art, Architecture and Design Prague; Schule für Kunsthandwerk Prag; Uměleckoprůmyslová škola; Vysoká škola umělecko-průmyslová; Ecole des arts appliques de Prague; École des arts appliqués de prague; VŠUP; ВШУП; College of Applied Arts in Prague",Czech Republic,,50.08869444,14.41483333,
Academy of Christian Humanism University,,Chile,Santiago,-33.4375,-70.6275,
Academy of Drama and Film in Budapest,SZFE; Színház- és Filmművészeti Főiskola,Hungary,Budapest,47.49527778,19.06611111,
Academy of Dramatic Art,Академия театрального искусства,Croatia,,45.80861111,15.97,
Academy of Economic Studies of Moldova,Academia de Studii Economice Chisinau; Academia de Studii Economice din Chișinău; Academia de Studii Economice din Moldova,Moldova,Chișinău,47.031013,28.838392,
Academy of Fine Arts,Акадэмія мастацтваў (Варшава); Акадэмія прыгожых мастацтваў (Варшава); Akademia Sztuk Pięknych; Akademia Sztuk Pięknych w Warszawie; Akademie der Schönen Künste (Warschau); Akademie der Schönen Künste Warschau; Academia de Bellas Artes en Varsovia; Académie des Beaux-Arts de Varsovie; Academie van Schone Kunsten van Warschau; Akademia Sztuk Pieknych w Warszawie; Akademia Sztuk Pięknych w Warszawie; Kunstacademie in Warschau; Kunstacademie van Warschau; ASP w Warszawie; Академия изящных искусств в Варшаве,Poland,Warsaw,52.23944,21.015,
Academy of Fine Arts,Академия художеств; ALU; Akademija likovnih umjetnosti,Croatia,,45.8121,15.9624,
Academy of Fine Arts,"Akademie der Bildenden Künste, Danzig; Académie des beaux-arts de Gdansk",Poland,,54.351,18.6484,
Academy of Fine Arts of Helsinki,Bildkonstakademin; Kuvataideakatemia; Academia de Bellas Artes Finlandia; Kuvataideakatemia; Suomen Taideakatemian koulu; Suomen Taideyhdistyksen piirustuskoulu; Taideakatemian koulu; Académie des Beaux-Arts d’Helsinki,Finland,,60.1825,24.96027778,
"Academy of Fine Arts, Rome",Accademia Belle Arti Roma; Accademia di belle Arti di Roma; Akademie der schönen Künste Rom; Academy of Fine Arts of Rome; Academy of Fine Arts Rome; Accademia delle Belle Arti di Roma; Accademia di Belle Arti di Roma; Accademia di belle arti (Roma); Accademia di Belle Arti (Roma); Accademia di Belle Arti di Roma,Italy,,41.90753,12.475817,
Academy of Foreign Intelligence,Академия внешней разведки СВР; КИ КГБ СССР; Краснознамённый имени Ю. В. Андропова институт КГБ СССР; Краснознаменный имени Ю.В. Андропова институт КГБ СССР; Краснознаменный институт им. Ю. В. Андропова; Краснознамённый институт им. Ю. В. Андропова; Краснознаменный институт КГБ; Краснознамённый институт КГБ; Краснознаменный институт КГБ СССР; Краснознамённый институт КГБ СССР; АЗР,Russia,,55.909416666667,37.652777777778,
Academy of Gondishapur,جندی‌شاپور; مدرسة جنديسابور الطبية; مدرسة جنديشابور; آکادمی جندی شاپور; اکادمی جندی شاپور; دانشگاه جندی شاپور; دانشگاه جندی شاپور اهواز; دانشگاه جندی‌شاپور; دانشگاه گندی شاپور; دانشگاه گندی‌شاپور; فرهنگستان گندیشاپور; گندیشاپور; Gundishapur; Academie de Gundishapur; Académie de gundishapur; Académie De Gundishapur; Academie van Gundishapur; Universitetet i Gundishapur; Gundeşapur akademisi,Iran,,32.283333,48.516667,
Academy of Labour and Social Relations,АТиСО; Высшая школа профсоюзного движения; Высшая школа профсоюзного движения ВЦСПС им. Н. М. Шверника; ОУП ВПО АТиСО,Russia,,55.756,37.618,
Academy of Land Forces,Академия сухопутных войск имени Гетмана Петра Сагайдачного; Академия Сухопутных войск имени Гетмана Петра Сагайдачного; Военный институт при Национальном университете «Львовская политехника»; Львовский военный институт; Львовский военный институт при Национальном университете «Львовская политехника»; Львовский военный ордена Красной Звезды институт имени гетмана Петра Сагайдачного; Львівське вище військово-політичне училище; Львівський військовий інститут,Ukraine,,49.82573284,24.01834501,
Academy of Music and Music Communication,VMK,Denmark,Esbjerg Municipality,55.4705,8.4507,
Academy of Performing Arts,Akademie muzických umění; Akademie múzických umění; Prager Musikakademie; Academy of Performing Arts in Prague; Academie tcheque des arts musicaux; Académie Tchèque Des Arts Musicaux; Akademie muzickych umeni v Praze; Akademie múzických umení v Praze; Akademie múzických umění v Praze; Akademie van de muzikale Kunsten; Akademie múzických umění v Praze; Академия музыкального искусства (Прага); Пражская Академия музыкального искусства; Пражская академия музыки; Пражская музыкальная академия; Akadémia múzických umení v Prahe; Празька академія музичних мистецтв; Akademie múzických umění v Praze,Czech Republic,Prague,50.0875,14.40194444,
Academy of Physical and Sports Education Vojo Kushi,,Albania,,41.33055556,19.80194444,
Academy of Public Administration,Verwaltungsakademie; Акадэмія кіравання; Акадэмія кіравання пры прэзідэнце Беларусі; Academia de Direccion adjunta al Presidente de la Republica de Belarus; Академия государственного управления при Президенте Республики Беларусь; Академия при Президенте РБ; Академия управления Беларуси; Академия управления при Кабинете Министров Республики Беларусь; Академия управления при Совете Министров БССР; Академия управления при Совете Министров Республики Беларусь; АУ при Президенте РБ; АУ РБ; АУпПРБ; АУПРБ,Belarus,Minsk,53.886667,27.538889,
Academy of the Ministry of Internal Affairs,Акадэмія МУС РБ; Акадэмія МУС Рэспублікі Беларусь; Академия министерства внутренних дел Белоруссии; Академия Министерства внутренних дел Республики Беларусь; Минская высшая школа МВД СССР,Belarus,,53.91250001,27.57694445,
Acadia University,Acadia University; Universidad de acadia; Acadia college; Acadia University; Universite Acadia; 阿卡迪亞大學,Canada,Nova Scotia,45.091125,-64.361427777778,
Accademia Albertina,Accademia Albertina delle Belle Arti; Albertine Academy of Fine Arts; Accademia Albertina di Belle Arti; Regia Accademia Albertina,Italy,Turin,45.0675,7.68944444,
Accademia Nazionale di Arte Drammatica Silvio D'Amico,Académie Nationale d'Art Dramatique; Accademia d'arte drammatica; Accademia Nazionale d'Arte Drammatica; Accademia Nazionale d'Arte Drammatica Silvio D'Amico,Italy,Rome,41.92000278,12.49342222,
Accademia nazionale di Santa Cecilia,,Italy,,41.929,12.4745,
Acharya N. G. Ranga Agricultural University,PJTSAU; Professor Jayashankar Telangana State Agricultural University; అచార్య N.G. రంగా వ్యవసాయ విశ్వవిద్యాలయం; ఆచార్య N.G.రంగా వ్యవసాయ విశ్వవిద్యాలయం; ఆచార్య N.G.రంగా వ్యవసాయ విశ్వవిద్యాలయము; ఆంధ్రప్రదేశ్ వ్యవసాయ విశ్వవిద్యాలయం,India,India,17.32151111,78.40981111,
Acharya Nagarjuna University,ఆచార్య నాగార్జున విశ్వవిద్యాలయము; నాగార్జున విశ్వవిద్యాలయం; నాగార్జున విశ్వవిద్యాలయము; నాగార్జునా యూనివర్సిటీ,India,Namburu,16.375322222222,80.528583333333,
Acıbadem University,Acıbadem üniversitesi,Turkey,,40.92527778,29.15444444,
Adam Mickiewicz University in Poznań,"Adam-Mickiewicz-Universität; Piasten-Universität; Piastenuniversität; Universität Posen; Universität Poznan; Universität Poznań; Uniwersytet im. Adama Mickiewicza; (Adam Mickiewicz Universitato); Adam Mickiewicz University; Universitato Adam Mickiewicz; Universitato Adam Mickiewicz en Poznan; Universitato Adam Mickiewicz en Poznań; Universitato de Adam Mickiewicz; Universitato de Poznań; Universitato de Poznano; Uniwersytet Adama Mickiewicza; Uniwersytet Adama Mickiewicza w Poznaniu; Universidad Adam Mickiewicz de Poznan; Universidad de Poznan Adam Mickiewicz; Universidad de Poznan, Adam Mickiewicz; UAM; université Adam Mickiewicz; université Adam Mickiewicz de Poznań; université de Poznan; université de Poznań; アダム・ミツキェヴィッチ大学; ピャスト大学; ポズナニ大学; ポズナン大学; UAM; Universitetet i Poznań; Uniwersytet im. Adama Mickiewicza; Adam Mickiewicz Universiteit Poznan; Adam Mickiewicz Universiteit Poznań; Universiteit van Poznan; Universiteit van Poznań; UAM; Uniwersytet Adama Mickiewicza; Uniwersytet Adama Mickiewicza w Poznaniu; Uniwersytet im. Adama Mickiewicza; Uniwersytet imienia Adama Mickiewicza; Uniwersytet Poznański; Wszechnica Piastowska; Uniwersytet im. Adama Mickiewicza w Poznaniu; Университет Адама Мицкевича; Университет имени Адама Мицкевича; Познанський університет; Університет імені Адама Міцкевича; Університе́т імені Ада́ма Міцке́вича у Познані",Poland,Poznań,52.407777777778,16.915555555556,0000 0001 2097 3545
Adams State University,,United States of America,,37.471231,-105.879536,
Addis Ababa University,AAU; አዲስ አበባ ዩኒቨርሲቲ; Addis-Abeba-Universität; Universidad de Adis Abeba; Université d'Addis Abeba; Université d’Addis Abeba; Universitas Neanthopolis; Addis Ababa University,Ethiopia,Addis Ababa,9.0466666666667,38.759166666667,0000 0001 1250 5688
Adelaide College of the Arts,,,,-34.92456,138.59208,
Adelphi University,دانشگاه ادلفی; Adelphi University; アデルフィ大学,United States of America,New York,40.7202,-73.6517,
Adiban Institute of Higher Education,,Iran,,35.7686,51.2792,
Adikavi Nannaya University,,India,,17.01706667,81.78274167,
Admiral Makarov National University of Shipbuilding,Николаевский кораблестроительный институт; Николаевский кораблестроительный институт имени адмирала Макарова; НУК им. Адмирала Макарова; Украинский государственный морской технический университет; Украинский государственный морской технический университет им. Адмирала Макарова; Миколаївський кораблебудівельний інститут; Миколаївський кораблебудівний інститут; МКІ; Український державний морський технічний університет імені адмірала Макарова,Ukraine,,46.987908,32.002316,
Adnan Menderes University,Adnan Menderes Üniversitesi; ADU; Adnan menderes üniversitesi; Adü,Turkey,Efeler,37.85472222,27.85472222,
Adolfo Ibáñez University,,Chile,Santiago,-33.486,-70.518,
Advanced Institute of Industrial Technology,,Japan,Tokyo,35.607002,139.749107,
Advanced Learning and Research Institute,AlaRI,Switzerland,,46.01072,8.9585,
Adıyaman University,Adıyaman Üniversitesi; ADYÜ; Adıyaman üniversitesi,Turkey,,37.74388889,38.23166667,
Aeronautical College of Bangladesh,,,,23.874898,90.387425,
Afghan Defense University,,Afghanistan,,34.5542,69.0315,
Afghanistan Technical Vocational Institute,ATVI-ATVI Afghanistan-Afghanistan ATVI-Afghanistan Technical Institute-Afghanistan Technical Vocational Institute-Kabul Institute; انستیوت تعلیمات تخنیکی مسلکی افغانستان; د افغانستان دتخنیکي مسلکي زده کړو انسټیټوټ,Afghanistan,,34.514386305556,69.139431194444,
Africa University,Africa University,Zimbabwe,Mutare,-18.8975,32.6011,
African Bible College,,Uganda,,0.2404,32.5646,
African Methodist Episcopal University,,Liberia,,6.31037,-10.80101,
African Rural University,,Uganda,Kibaale District,0.94265,30.8171,
Afyon Kocatepe University,Afyon Kocatepe Üniversitesi; AKU; Afyon kocatepe üniversitesi; Afyonkarahisar Kocatepe Üniversitesi; Kocatepe Üniversitesi,Turkey,Afyonkarahisar,38.80833,30.53549,
Aga Khan University,Aga Khan University; AKU,Uganda,,24.8928,67.0747,
Agostinho Neto University,Universität Agostinho Neto; アゴスティニョ・ネト大学; Universidade de Luanda; Universidade Agostinho Neto,Angola,Luanda,-8.9419,13.28027,
Agricultural Academy in Dublany,Państwowy Lwowski Uniwersytet Rolniczy; ЛДАУ; Львівський державний аграрний університет; Львівський сільськогосподарський інститут; Сільськогосподарська академія в Дублянах,Ukraine,,49.9,24.092,
"Agricultural College and Research Institute, Killikulam",,India,,8.70339,77.8596,
Agricultural State University of Moldova,,Moldova,,47.062,28.809,
Agricultural University of Athens,Γεωπονικό Πανεπιστήμιο; Universidad Agrícola de Atenas; Universidad de agricultura de atenas; Universite d'agriculture d'Athenes; Université d'agriculture d'athènes; Université d’Agriculture d’Athènes; Аграрный университет (Афины); ピレウス技術教育研究所,Greece,Athens,37.98388889,23.70555556,
Agricultural University of Cracow,Akademia Rolnicza w Krakowie; Uniwersytet Rolniczy im. Hugona Kołłątaja w Krakowie; Agricultural University of Krakow; Agricultural University of Kraków; Académie d'agriculture Hugo Kołłątaj de Cracovie; École supérieure d'agriculture Hugo Kollątaj; Akademia Rolnicza w Krakowie; Uniwersytet Rolniczy w Krakowie; Wydział Rolniczy Uniwersytetu Jagiellońskiego; Wyższa Szkoła Rolnicza w Krakowie,Poland,Kraków,50.06472222,19.92472222,
Agricultural University of Havana,,Cuba,,22.9983,-82.1486,
Agricultural University of Iceland,LbhÍ; Islands landbrukshøyskole; Landbunadarhaskoli Islands; LbhÍ; Lbhl,Iceland,,64.56111111,-21.76972222,
Agricultural University of Tajikistan,Таджикский сельскохозяйственный институт,,,38.6094,68.7869,
Agricultural University of Tirana,,Albania,,41.3622996,19.77105618,
Ahlia University,,Bahrain,,26.2359,50.593,
Ahmadu Bello University,Ahmadu Bello University; アーマドゥ・ベロー大学; Ahmadu Bello University; Ahmadu Bello University,Nigeria,Zaria,11.15,7.65,
Ahmedabad University,,India,Ahmedabad,23.039021,72.555996,
Ahram Canadian University,جامعه الأهرام الكنديه,Egypt,,29.93527778,30.88277778,
Ahsanullah University of Science and Technology,"ইনডিপেন্ডেন্ট ইউনিভার্সিটি; Ahasanullah University of Science and Technology; Ahasanullah University of Science and Technology (AUST); Ahsanullah University of Science & Technology; Ahsanullah university of science and technology; Ahsanullah University of Science and Technology; Ahsanullah University of Science and Technology, Dhaka; Ahsanullah University of Science and Technology, Dhaka, Bangladesh",Bangladesh,,23.76361111,90.40694444,
Aichi Bunkyo University,愛知文教大学大学院,Japan,,35.3,137.007,
Aichi Gakuin University,愛学; 愛知学院,Japan,,35.162,137.047,
Aichi Institute of Technology,AITサイエンス大賞; 名古屋電気大学,Japan,,35.1836,137.1119,
Aichi Medical University,愛知医大,Japan,,35.1925,137.0474,
Aichi Mizuho College,,Japan,,35.125209,137.18791,
Aichi Prefectural College of Nursing & Health,APCNAH; APCNH,Japan,Nagoya,35.28345556,136.92915833,
Aichi Prefectural University,愛知県立女子大学,Japan,Nagakute,35.182,137.087,
Aichi Prefectural University of Fine Arts and Music,Université des Arts de la Préfecture d'Aichi; Université des Arts de la Préfécture d'Aichi; APIFAM; 愛知芸大,Japan,Aichi Prefecture,35.16944444,137.069625,
Aichi Sangyo University,愛知産業大学短期大学部,Japan,,34.921,137.223,
Aichi Shinshiro Otani University,ASOU,Japan,,34.9136,137.5345,
Aichi Shukutoku University,,Japan,,35.1574,137.0316,
Aichi Toho University,東邦学園大学,Japan,,35.1701,136.9869,
Aichi University,Aichi Daigaku; Universität Aichi; 現代中国学部,Japan,,34.740466,137.386517,
Aichi University of Education,愛知第二師範学校; Aichi Kyoiku Daigaku; Aichi Kyōiku Daigaku; Aichi University of Education; AUE; 愛教大; 愛知学芸大学; 愛知教育大学附属学校; Aichi University of Education; Айтівський педагогічний університет; Педагогічний Айті університет; あいちきょういくだいがく,Japan,Kariya,35.05205,137.05035278,
Aichi University of Technology,,Japan,,34.832,137.1936,
Aikoku Gakuen University,,Japan,,35.665975,140.16168333,
Ain Shams University,جامعة إبراهيم باشا; جامعه عين شمس; Ain Shams University; Ain-Shams-Universität; Ǧāmiʿat ʿAin Šams; Université Ain-Shams; Université d’Ain Shams,Egypt,Cairo,30.07702222,31.28501667,0000 0004 0621 1570
Aino University,,Japan,,34.84277778,135.58222222,
Air University,Airpower Journal,United States of America,,32.385221,-86.345453,
Airlangga University,,Indonesia,,-7.268141,112.771096,
Aix-Marseille University,Universität Aix; Universität Aix-en-Provence; Universität Marseille; Universite Aix; Université Aix; Universite Aix-en-Provence; Université Aix-en-Provence; Universite Marseille; Université Marseille; Universidad de Marsella; Universite d'Aix et de Marseille; Université d'Aix et de Marseille; Université d'Aix; Université d'Aix-en-Provence; Université d'Aix-Marseille; Université de Marseille; אוניברסיטת אקס; Aix-Marseille-universitetet,France,Marseille,43.29349444,5.35784167,
Ajou University,Université d'Ajou; 아주 대학교; 아주대,South Korea,Suwon,37.282913,127.04607,
Akademia Lospuma Training Institute,,Poland,,50.2592,19.0442,
Akdeniz University,Akdeniz-Universität; دانشگاه آک دنیز; دانشگاه اک دنیز; دانشگاه اک‌دنیز; Akdeniz University; Akdeniz Üniversitesi; Universidade do Mediterrâneo; Antalya Akdeniz Üniversitesi; Antalya Üniversitesi; Akdeniz大学,Turkey,Antalya,36.895,30.6511,
Akita International University,Kokusai Kyōyō Daigaku; ミネソタ州立大学秋田校,Japan,Akita,39.627375,140.19790556,
Akita Prefectural University,システム科学技術研究科; 秋田县立大学,Japan,Akita,39.39333333,140.07305556,
Akita University,Akita Daigaku; Akita-Universität; Shudai; Shūdai; 秋大; 秋田大; 秋田大学附属学校; Akita University; 아키타 대학교; Університет Акіта; 秋田大学; あきただいがく,Japan,Akita,39.72803333,140.13404722,
Akita University of Art,公立大学法人秋田公立美術大学,Japan,,39.6865,140.09082222,
Akita University of Nursing and Welfare,AUNW; AUONAW,Japan,,40.2809826,140.5536854,
Akobo Heritage and Memorial University,,South Sudan,,7.77699,32.98593,
Aksaray University,Aksaray üniversitesi,Turkey,,38.326,33.9761,
Al Akhawayn University,جامعه الأخوين; Al akhawayn; Al Akhawayn; Alakhawayn; Alakhawayn University; Alakhawayn University in Ifrane; Université Al Akhawayn; Université Al-Akhawayne; Université alakhawayn,Morocco,Ifrane,33.539248,-5.105553,
Al Asmarya University for Islamic Sciences,الجامعة الأسمرية; الجامعة الاسمرية للعلوم الإسلامية; الجامعه الأسمريه للعلوم الإسلاميه,Libya,,32.4681,14.5672,
Al Azhar,الأزهر(مفاهيم); جامعة الأزهر الشريف; جامعه الأزهر; محمد بن علي العمري; Al-Azhar; زانکۆی ئەزهەر; Al-Azhar; Mešita al-Azhar; Al-Ashar-Universität; Al-Azhar Universität; Azhar-Universität; Αζχάρ; Al-Azhar University; Al Azhar; Al Azhar; Al-Azhar; Universidad Al Azhar; Universidad al-Azhar; Universidad de Al Azhar; الازهر; پوهنتون الازهر; جامع الازهر; دانشگاه اسلامی الازهر; دانشگاه الازهر مصر; Al Azhar; Universite al-Azhar; Université d'Al-Azhar; אוניברסיטת אל אזהר; אוניברסיטת אל-אזהר; אל אזהר; אלאזהר; Universitas Al Azhar; Al-Azhar; El Azhar; Moschea-Università di al-Azhar; アズハル; アズハル大学; アズハル学院; ალ-აზარის უნივერსიტეტი; Әл-Азhар университеті; 아자르 대학교; 아자르대학교; 아즈하르 대학; 아즈하르 대학교; 알 아즈하르 대학; 알 아즈하르 대학교; 알아즈하르 대학; Al-Azharo universitetas; Al-Azhar University; Masjid al-Azhar; Universiti Al Azhar; Al Azhar; Al Azhar universiteit; Al-Azhar; Al-Azhar universiteit; De schitterende al-Azhar; الازهر پوهنتون; Universidade al-azhar; Азхар; Ал-Азхар; Аль-Азхар; Исламский университет Аль-Азхар; Al-Azhar; Al Azhar-universitetet; Al Azharuniversitetet; Al-Azhar; Al-Azhar al-Sarif; Al-Azhar-universitetet; Al-Azharmoskén; มหาลัยอัลอัซฮัร; El Azhar İslam Üniversitesi; El Ehzer İslam Üniversitesi; El Ezher Üniversitesi; Аль-Азхар; Ель-Азхар; جامعہ ازہر; Al-Azhar University; 愛資哈爾大學,Egypt,Cairo Governorate,30.045833333333,31.2625,
Al Mansour University College,كليه المنصور الجامعه,Iraq,,33.315,44.42833333,
Al Rasheed University College,كليه الرشيد الجامعه,Iraq,,33.28472222,44.30944444,
Al Turath University College,كليه التراث الجامعه,Iraq,,33.31805556,44.36055556,
Al Yarmouk University College,كليه اليرموك الجامعه,Iraq,,33.3,44.44444444,
Al Zawiya University,جامعة 7 أبريل; جامعة 7 ابريل; جامعة السابع من أبريل; جامعة السابع من ابريل; جامعه السابع من أبريل,Libya,Zawiya,32.75,12.7167,
Al al-Bayt University,جامعه آل البيت; AABU,Jordan,Mafraq,32.361,36.219,0000 0001 0679 2502
Al-Aqsa University,Al-Aksa-Universität; Universite al-Aqsa; Universidade de Al-Aqsa,,Gaza City,31.4836,34.445544,
Al-Baath University,جامعة البعث كلية الطب البيطري; جامعه البعث; Ǧāmiʿat al-Baʿṯ; Universität Homs,Syria,,34.7128,36.7086,
Al-Farabi University,Әл-Фараби университеті; Қазақ мемлекеттік университеті; Қазақ Мемлекеттік Университеті; Қазақ ұлттық университеті; Қазақ Ұлттық Университеті; ҚазМУ; ҚазҰУ; Казахский государственный университет; Казахский государственный университет им. С.М.Кирова; Казахский государственный университет имени С. М. Кирова; Казахский национальный университет им. Аль-Фараби; Казахский Национальный университет имени аль-Фараби; КазГУ; КазНУ; КазНУ им. Аль-Фараби; Kazašská národní univerzita Al Farabího,Kazakhstan,Almaty,43.2525,76.926667,
Al-Furat University,,Syria,,35.31888889,40.11055556,
Al-Hussein Bin Talal University,جامعه الحسين بن طلال,Jordan,,30.26638889,35.68111111,
Al-Mustansiriya University,الجامعة ألمستنصرية; الجامعه المستنصريه; المستنصرية; المستنصريّة; جامعة المستنصرية; جامعة مستنصرية; Al-Madrasa al-Mustansiriyya; Al-Mustansirijah-Universität; Al Mustansiriya; Madrasa al-Mustansiriyya; Médersa al-Mustansiriyah; Mustansiriyya; Universite al-Mustansiriyah,Iraq,,33.33861111,44.38972222,
Al-Muthana University,جامعه المثنى,Iraq,,31.33861111,45.28888889,
Al-Quds Open University,جامعه القدس المفتوحه; QOU; Al-Quds Open University; El Kudüs Açık Üniversitesi,,,31.91305556,35.19944444,
Al-Quds University,دانشگاه القدس; Universite al-Qods; אוניברסיטת אל קודס,State of Palestine,Jerusalem,31.755908333333,35.261380555556,
Al-Zahra College for Women,,Oman,,23.6128,58.4845,
Alabama Agricultural and Mechanical University,Alabama A&M; AAMU; Alabama A&M University; دانشگاه کشاورزی و مهندسی الاباما; Alabama A&M University,United States of America,Alabama,34.7846,-86.5699,
Alabama State University,அலபாமா மாநிலப் பல்கலைக்கழகம்,United States of America,Alabama,32.364,-86.295,
Alagappa University,,India,,10.078603,78.79468,
Alamein University,,Egypt,,30.84083333,28.92694444,
Alaska Pacific University,,United States of America,Alaska,61.1893,-149.804,
Alauddin Islamic State University,,Indonesia,,-5.1767,119.4341,
Albany Law School,アルバニー・ロー・スクール; オーバルニ・ロースクール; オールバニ法律学校; オールバニ法科大学院,United States of America,New York,42.6524,-73.7773,
Albany Technical College,,United States of America,,31.5535,-84.1745,
Albert Einstein College of Medicine,جامعه يشيفا كليه طب ألبرت آينستاين; دانشکدهٔ پزشکی آلبرت اینشتین; دانشکده پزشکی البرت اینشتین; دانشکدهٔ پزشکی البرت اینشتین; کالج پزشکی آلبرت انیشتین; کالج پزشکی آلبرت اینشتین; AECOM; Aecom; アルバート・アインシュタイン医学校; アルバート・アインシュタイン医科大学; アルベルト・アインシュタイン医科大学; 愛因斯坦醫科大學,United States of America,,40.850852,-73.844949,0000 0001 2179 1997
Alberto Hurtado University,UAH; Universidad alberto hurtado,Chile,,-33.44481667,-70.66204444,
Alcorn State University,Alcorn State University; Алкорн,United States of America,Mississippi,31.87694,-91.14111,
Alecu Russo State University of Bălţi,"Universitatea de Stat ""Alecu Russo""; Бельцкий государственный университет им. Алеку Руссо",,,47.75486667,27.92166111,
Aleksandras Stulginskis University,Aleksandro Stulginskio universitetas; Landwirtschaftliche Universität Litauens; Lietuvos žemės ūkio akademija; Lietuvos zemės ukio universitetas; Lietuvos žemės ūkio universitetas; LŽŪA; Dotnuvos žemės ūkio akademija; Lietuvos žemės ūkio akademija; Lietuvos žemės ūkio universitetas; LŽŪA; LŽŪU; Žemės ūkio akademija; Litewski Uniwersytet Rolniczy,Lithuania,,54.91016667,23.94813889,
Aleksandër Moisiu University,"Universiteti ""Aleksander Moisiu""; Universiteti ""Aleksander Moisiu"" Durres",Albania,Durrës,41.313534,19.434216,
Aleksandër Xhuvani University,"Universiteti ""Aleksandër Xhuvani""; Universiteti Aleksandër Xhuvani; Universiteti i Elbasanit ""Aleksandër Xhuvani""",Albania,,41.1220549,20.0793386,
Aletheia University,Aletheia University; 淡水工商管理學院; 淡水工商管理專科學校; 真理大学,Taiwan,,25.17666,121.434621,
Alexandria University,جامعة إسكندرية; جامعة اسكندرية; جامعة اسكندريه; جامعة الأسكندرية; جامعة الاسكندرية; جامعة الاسكندريه; جامعه الإسكندريه; جامعة اسكندرية; جامعة الاسكندريه; university of Alexandria; Alexandria University,Egypt,Alexandria,31.201944444444,29.905277777778,
Alexandru Ioan Cuza University,,Romania,Iași,47.174231,27.571691,
Alfaisal University,,,,24.664003,46.67625183,
Alfred University,,United States of America,New York,42.255555555556,-77.787527777778,
Algoma University,アルゴマ大学カレッジ,Canada,,46.503572222222,-84.298911111111,
Ali Institute of Education,,Pakistan,,31.4863,74.3386,
Aligarh Muslim University,جامعة عليقار; جامعة عليقار الإسلامية; جامعة عليكرة; جامعة عليكرة الإسلاميّة; جامعة عليكره; আলিগড় বিশ্ববিদ্যালয়; আলিগড় বিশ্ববিদ্যালয়ে; আলীগড় মুসলিম বিশ্ববিদ্যালয়; Hochschule von Aligarh; Muslimische Universität Aligarh; Aligarh universitato; अलीगढ मुस्लिम विश्वविद्यालय; アリーガル大学; Aligarh Muslim University; അലിഗഡ് മുസ്ലിം യൂനിവേഴ്‍സിറ്റി; അലിഗഢ് സർവകലാശാല; Aligarh Muslim University; Mohammadan Anglo-Oriental College; అలీగఢ్ ముస్లిం యూనివర్శిటీ; అలీఘర్ ముస్లిం యూనివర్శిటి; అలీఘర్ ముస్లిం యూనివర్శిటీ; علی گڑھ مسلم یونیورسٹی,India,"Aligarh, Uttar Pradesh",27.88,78.08,
All Nations University,,Ghana,,6.090544,-0.263329,
All Saints University,,Uganda,,2.235556,32.8975,
All-Russian Academy of Foreign Trade,Академия внешней торговли; ВАВТ; Всесоюзная академия внешней торговли; 全俄羅斯對外貿易學院,Russia,Ramenki District,55.727,37.534,
Allahabad University,Allahabad University; Universität Allahabad; Allahabad University; Allahabad University; Allahabad-universiteit; Universiteit Allahabad; University of Allahabad; Allahabad University,India,Allahabad,25.46696,81.860187,
Allen University,,United States of America,South Carolina,34.010556,-81.020556,
Allenhouse Institute of Technology,,India,Uttar Pradesh,26.3656,80.4361,
Alma Mater Viadrina,,Germany,,52.349,14.54886111,
Almaty University of Power Engineering and Telecommunications,Алматы Энергетика және Байланыс Институты; АИЭС; Алма-Атинский институт энергетики и связи; Алма-Атинский энергетический институт; Алматинский институт энергетики и связи; АУЭС,Kazakhstan,Almaty,43.2775,76.8958,
Almaty University of Technology,Алматы Технологиялық Институты; Алматинский технологический институт,Kazakhstan,,43.252414,76.926666,
Almetyevsk State Petroleum Institute,АГНИ; Әлмәт нефть институты,Russia,,54.90472223,52.01111112,
Alpen-Adria-Universität Klagenfurt,Alpen-Adria-Universität; Alpen-Adria-Universität Klagenfurt; Hochschule für Bildungswissenschaften; Uni Klagenfurt; Universität für Bildungswissenschaften; University of Klagenfurt; Universite de Klagenfurt; Альпийско-адриатический университет; Университет Клагенфурта,Austria,Klagenfurt,46.616388888889,14.265,
Alrafidain University College,كلية الرافدين الجامعة الاهلية,Iraq,,33.36416667,44.40722222,
Altai State Academy of Culture and Arts,,Russia,,53.35009,83.775998,
Altai State Academy of Education,,,,52.5369,85.1958,
Altai State Agrarian University,Алтайский сельскохозяйственный институт; Алтайский сельхозинститут,Russia,,53.32977701,83.78313801,
Altai State Medical University,Агму; Алтайский медицинский институт; Барнаульский медицинский институт,Russia,,53.356,83.762,
Altai State Pedagogical Academy,,Russia,,53.3417,83.7613,
Altai State Technical University,Алтайский государственный технический университет; Алтайский государственный технический университет им. И. И. Ползунова; Алтайский политехнический институт; Алтайский политехнический институт имени И. И. Ползунова; Алтгту,Russia,,53.35,83.78333333,
Altai State University,АлтГУ,Russia,Barnaul,53.35,83.783,
Altamaha Technical College,,United States of America,,31.6217,-81.91,
Alvernia University,,United States of America,Pennsylvania,40.31,-75.935,
Alzahra University,Farah-Pahlavi-Universität; دانشگاه فرح پهلوی,Iran,,35.7675,51.3925,
Ambedkar University Delhi,Bharat Ratna Dr. B. R. Ambedkar University,India,Delhi,28.66416667,77.2325,
Amberton University,Amberton University,United States of America,Texas,32.8599,-96.6529,
American College of the Building Arts,,United States of America,,32.7785,-79.9372,
American International University-Bangladesh,"AIUB; অ্যামেরিকান ইন্টারন্যাশনাল ইউনিভার্সিটি-বাংলাদেশ; আমেরিকান ইন্টারন্যাশনাল ইউনিভার্সিটি,বাংলাদেশ; এআইইউবি",Bangladesh,,23.7945,90.4016,
American Jewish University,Brandeis-Bardin Institute; University of Judaism; Elliot Dorff; 美国犹太大学,United States of America,,34.12782778,-118.47165278,
American Military University,AMU,United States of America,West Virginia,39.287782,-77.860082,
American Public University,APU,United States of America,West Virginia,39.287781944444,-77.860081944444,
American Sports University,,United States of America,California,34.1063,-117.292,
American Temperance University,,United States of America,Tennessee,35.933889,-84.551944,
American University,AU; الجامعه الأميركيه; American University; دانشگاه آمریکن; 아메리칸대학교; The American University,United States of America,Washington,38.937055,-77.086922,
American University in Bulgaria,Американски университет в Благоевград; Американски Университет в България; АУБ; دانشگاه امریکایی بلغارستان; دانشگاه ایالات متحدهیی بلغارستان; AUBG; Universitatea Americană din Bulgaria,Bulgaria,,42.021388888889,23.095,
American University in Cairo,الجامعة الأمريكية في القاهرة; الجامعة الأميركية بالقاهرة; الجامعة الأميركية في القاهرة; الجامعة الامريكية بالقاهرة; الجامعة الاميريكية في القاهرة; الجامعه الأمريكيه بالقاهره; جامعة أمريكية (القاهرة); الجامعه الأمريكيه فى القاهره; الجامعه الامريكيه فى القاهرة; American University of Cairo; Usona Universitato en Kairo; دانشگاه امریکایی قاهره; دانشگاه ایالات متحدهیی قاهره; American University in Cairo; Universite americaine du Caire; Université américaine du caire; Det amerikanske universitetet i Kairo; Американский Университет Каира; アメリカ大学カイロ校,Egypt,Cairo,30.019944444444,31.500344444444,
American University in Dubai,الجامعة الأمريكية بدبي; الجامعة الأمريكية في الإمارات; الجامعه الأمريكيه في دبي; دانشگاه آمریکایی دوبی; دانشگاه امریکایی دبی; دانشگاه امریکایی دوبی; دانشگاه ایالات متحدهیی دبی; دانشگاه ایالات متحدهیی دوبی,United Arab Emirates,,25.090833333333,55.156388888889,
American University in Kosovo,,,Prishtina,42.6702,21.1921,
American University of Afghanistan,پوهنتون آمریکایی افغانستان; پوهنتون امریکایی افغانستان; دانشگاه امریکایی افغانستان; دانشگاه ایالات متحدهیی افغانستان,Afghanistan,,34.517778,69.128056,
American University of Antigua,کالج پزشکی دانشگاه امریکایی انتیگوا; کالج پزشکی دانشگاه ایالات متحدهیی آنتیگوا,Antigua and Barbuda,,17.158803,-61.797355,
American University of Armenia,دانشگاه امریکایی ارمنستان; دانشگاه ایالات متحدهیی ارمنستان; Ermenistan amerikan üniversitesi,Armenia,Yerevan,40.193292,44.504517,
American University of Beirut,الجامعة الأمريكية ببيروت; الجامعة الأمريكية في بيروت; الجامعة الأميركية ببيروت; الجامعة الاميركية في بيروت; الجامعه الأميركيه في بيروت; الكلية الأميركية ببيروت; الكلية الإنجيلية السورية; الكلية السورية البروتستانتية; المدرسة البطريكية; الجامعه الأمريكيه فى بيروت; American University of Beirut; Amerikanische Universität von Beirut; Usona Universitato de Beirut; Usona Universitato de Bejruto; دانشگاه امریکایی بیروت; دانشگاه ایالات متحدهیی بیروت; American University of Beirut; AUB; Universite americaine de Beyrouth; Université américaine de beyrouth; Université Américaine de Beyrouth; האוניברסיטה האמריקאית בביירות; American University of Beirut; Universitas amerika di beirut; Università Americana di Beirut; Beyrut amerikan üniversitesi,Lebanon,Beirut,33.899963888889,35.482283333333,
American University of Kuwait,الجامعة الامريكية في الكويت; الجامعه الأمريكيه في الكويت; دانشگاه امریکایی کویت; دانشگاه ایالات متحدهیی کویت,Kuwait,,29.343889,48.083056,
American University of Madaba,,Jordan,,31.661199,35.800066,
American University of Paris,دانشگاه امریکایی پاریس; دانشگاه ایالات متحدهیی پاریس; Université américaine de Paris,France,Paris,48.859,2.3037,
American University of Phnom Penh,,Cambodia,,11.5771,104.893,
American University of Rome,دانشگاه امریکایی رم; دانشگاه ایالات متحدهیی رم; Université américaine de Rome,Italy,Rome,41.8857,12.4623,
American University of Science and Technology,دانشگاه امریکایی علم و صنعت; دانشگاه ایالات متحدهیی علم و صنعت,Lebanon,,33.884444,35.5225,
American University of Sharjah,الجامعه الأمريكيه في الشارقه; دانشگاه امریکایی شارجه; دانشگاه ایالات متحدهیی شارجه; アメリカン大学シャールジャ校,United Arab Emirates,Sharjah Emirate,25.309722,55.490556,
American University of Technology,دانشگاه امریکایی فناوری,Lebanon,,34.423611,35.8325,
American University of Tirana,,Albania,,41.27999167,19.86264722,
American University of the Caribbean,دانشگاه امریکایی کاریبین; دانشگاه ایالات متحدهیی کاریبین,Sint Maarten,,18.05027778,-63.12694444,
Amirkabir University of Technology,Tehran Polytechnic; پلی تکنیک تهران; دانشگاه امیر کبیر; دانشگاه امیرکبیر; دانشگاه پلی تکنیک تهران; دانشگاه صنعتی امیر کبیر,Iran,,35.704402777778,51.409,
Amoud University,Jaamacada Camuud,Somalia,,9.945,43.223,
Amur State Medical Academy,АГМА; Амурская Государственная Медицинская Академия; Благовещенский медицинский институт,Russia,,50.26555557,127.5458333,
Amur State University,АмГУ; Аму́рский госуда́рственный университе́т,Russia,Blagoveshchensk,50.275,127.534,
An Giang University,Đại học An Giang; ĐHAG,Vietnam,,10.3718,105.431,
An-Najah National University,النجاح; جامعة النجاح; جامعة النجاح الوطنية بنابلس; جامعة النجاح الوطنية في نابلس; جامعة النجاح الوطنيه; جامعه النجاح الوطنيه; An-Najah Nationaluniversität; アン＝ナジャーフ大学,State of Palestine,Nablus,32.22027778,35.24444444,
Anadolu University,Anadolu Universites; Anadolu-Universität; Anatolien-Universität; دانشگاه انادولو; Anadolu Üniversitesi; 아나톨리아 대학교; Университет Анадолу; Anadolu üniversitesi; Anadolu Üniversitesi Açık Öğretim Sistemi; Eskişehir Anadolu Üniversitesi,Turkey,Eskişehir,39.7914,30.4997,
Anaheim University,アナハイム大学 アキオ・モリタ スクールオブビジネス; アナハイム大学 アキラ・クロサワ スクールオブフィルム; アナハイム大学 キショウ・クロカワ グリーンインスティテュート; アナハイム大学 大学院,United States of America,California,33.8169,-117.888,
Anahuac Mayab University,Universidad Anahuac Mayab; Universidad del Mayab,Mexico,,21.11055556,-89.61138889,
Anahuac University Network,Anahuac-Universität; Anáhuac-Universität; Universidad Anahuac; Universität Anahuac; Universität Anáhuac; Red de Universidades Anahuac; Anahuac-universiteit; Anáhuac-universiteit; Anahuacuniversiteit; Universidad Anahuac; Universidad Anáhuac,Mexico,,19.399902,-99.267672,
Anand Agricultural University,,India,,22.53583333,72.97472222,
Andalas University,Universitas Andalas,Indonesia,,-0.9145,100.46,
Anderson University,,United States of America,,40.111944444444,-85.666111111111,
Andhra University,Andhra Viswa Kala Parishad; Andhra Universidad; Andhra University; Andhra Viswa Kala Parishad; అంధ్రా విశ్వవిద్యాలయం; ఆంధ్ర విశ్వకళా పరిషత్; ఆంధ్ర విశ్వకళా పరిషత్తు; ఆంధ్ర విశ్వకళాపరిషత్తు; ఆంధ్ర విశ్వవిద్యాలయము; ఆంధ్రవిశ్వవిద్యాలయం; ఆంధ్రా యూనివర్సిటీ; ఆంధ్రా విశ్వవిద్యాలయం,India,Visakhapatnam,17.72927222,83.32155833,
Andhra-Christian College,ACC,India,Guntur,16.296611111111,80.442527777778,
Andong National University,安東大学; 안동대; 안동대학; 안동사범고등학교; 안동사범학교,South Korea,Andong,36.54157,128.79642,
Andrews University,Andrews; Battle Creek College,,Michigan,41.9619,-86.3573,
Andrássy University Budapest,Andrássy-universitetet,Hungary,Budapest,47.49179,19.064208,0000 0001 0669 8786
Andrés Bello Catholic University,Yukpa de Colombia y Venezuela; UCAB; Universidad Catolica Andres Bello; Universidad Catolica Andrés Bello; Universidad Católica Andres Bello,Venezuela,,10.4642,-66.9758,
Angarsk State Technical Academy,АГТА,Russia,,52.5275,103.8644444,
Angelo State University,Angelo State; دانشگاه ایالتی انجلو; 英語版,United States of America,Texas,31.4375,-100.45833333333,
Anglia Ruskin University,Anglia Polytechnic University; Anglia-Ruskin-Universität; Cambridge School of Art; Anglia Polytechnic University; Anglia Ruskin University; Anglia ruskin üniversitesi; 安格利亞魯斯金大學,United Kingdom,,52.203083333333,0.13369444444444,
Anglo-American University,,Czech Republic,,50.091567,14.410114,
Anhembi Morumbi University,Anhembi morumbi; Faculdade Anhembi Morumbi; Universidade do Anhembi Morumbi; Університет Анембі Мурумбі,Brazil,,-23.6005,-46.6749,
Anhui Medical University,,People's Republic of China,,31.8486,117.263,
Anhui University,合肥大学; 安徽省立大学; 安徽省立大學; 安徽银行学校,People's Republic of China,,31.845516,117.251596,
Ankara University,جامعه أنقره; Univerzita v Ankaře; Ankara Üniversitesi; دانشگاه انکارا; Ankara Üniversitesi; Universite d'Ankara; Universidade de Ankara; A.Ü.; AÜ; Enqere Uniwérsitéti,Turkey,Ankara,39.93666667,32.83027778,
"Ankara University, Law School",Ankara Üniversitesi Hukuk Fakültesi; Ankara Üniversitesi Hukuk Fakültesi; Ankara Hukuk Mektebi; Ankara üniversitesi hukuk fakültesi; AÜ Hukuk; AÜHF,Turkey,,39.92906,32.87182,
Ankole Western University,,Uganda,,-0.57361111,30.38,
Anna University,"Anna University of Technology; College of Engineering, Guindy; అన్నా విశ్వవిద్యాలయం",India,Chennai,13.01268,80.236362,
Annamalai University,अन्नामलई विश्वविद्यालय; Annamalai University; അണ്ണാമല സർവകലാശാല; அண்ணாமலை பல்கலைக்கழகம்; அண்ணாமலைப் பல்கலைக் கழகம்,India,,11.390845,79.714758,
Ansal Institute of Technology,,India,,28.431,77.111,
Antananarivo University,Universität Tananarive; Tananarive University; Universidad de Tananarive; Université d’Antananarivo; Université de Tananarive; Università di Antananarivo; Университет Тананариве,Madagascar,Antananarivo,-18.9152,47.5558,
Antenor Orrego Private University,Universidad Privada Antenor Orrego,Peru,Trujillo,-8.127258,-79.031669,
Antioch School of Law,,United States of America,Washington,38.9442,-77.0633,
Antioch University,Antioch; Antioc; Antiok; Antoich; AULA; アンティオック大学,United States of America,Yellow Springs,39.8035,-83.907166666667,
Antioch University New England,Antioch New England Graduate School,United States of America,New Hampshire,42.9319,-72.2939,
Antioch University Seattle,,United States of America,Washington,47.6174,-122.343,
Antioch University West,,United States of America,California,37.7914,-122.406,
"Anton Bruckner Private University for Music, Drama, and Dance","ABPU; Anton Bruckner Privatuniversität Linz; Bruckner-Konservatorium; Brucknerkonservatorium; Bruckneruni; Anton Bruckner Privatuniversität für Musik, Schauspiel und Tanz; ブルックナー音楽大学",Austria,,48.315555555556,14.285277777778,
Anton de Kom University of Suriname,AdeKUS; Universiteit van Suriname,Suriname,Paramaribo District,5.81402,-55.21626,
Antonine University,,Lebanon,,33.8375,35.53638889,
Antwerp University Association,AUHA,Belgium,,51.1844,4.42026,
Anyang University,안양대,South Korea,,37.39166667,126.91972222,
Aomori Chuo Gakuin University,ACGU; 経営法学部,Japan,,40.783616,140.761868,
Aomori Public University,Aomori Public College,Japan,Aomori,40.75388889,140.77194444,
Aomori University,青大,Japan,,40.78333333,140.77944444,
Aomori University of Health and Welfare,AUHW; AUOHAW,Japan,Aomori,40.81333333,140.79083333,
Aoyama Gakuin University,Aoyama Gakuin Daigaku; Aoyama Gakuin University; ベリーホール; 間島記念館; 青学大; 青山学院大; 아오야마가쿠인; 아오야마학원,Japan,Shibuya-ku,35.66111111,139.71055556,
Apex Professional University,,India,,25.61,91.9014,
Apollos University,,United States of America,California,33.715,-117.989,
Appalachian School of Law,,United States of America,Virginia,37.2768,-82.095,
Appalachian State University,ASU,United States of America,North Carolina,36.213843,-81.678621,
Apple University,,United States of America,,37.3318,-122.031,
Aquincum Institute of Technology,AIT,Hungary,Óbuda-Békásmegyer,47.560833333333,19.053611111111,
Arab American University – Jenin,الجامعة الأمريكية جنين; Arab American University,State of Palestine,Jenin,32.40694444,35.34305556,
Arab International University,الجامعه العربيه الدوليه الخاصه,Syria,Ghabaghib,33.176,36.2995,
Arak University,,Iran,,34.080182,49.677295,
Arak University of Medical Sciences,,Iran,,34.08,49.7,
Arak University of Technology,دانشکده فنی و مهندسی اراک; دانشکدهٔ فنی و مهندسی اراک,Iran,,34.08,49.7,
Arcada University of Applied Sciences,Arcada; Ammattikorkeakoulu Arcada; Arcada – Nylands svenska yrkeshögskola,Finland,,60.20138889,24.96527778,
Arcadia University,Beaver College,United States of America,Pennsylvania,40.092,-75.1655,
Ardahan University,Ardahan üniversitesi,Turkey,Ardahan,41.107,42.7024,
Ardhi University,Ardhi University,Tanzania,,-6.76472222,39.21416667,
Ariel University,אוניברסיטת אריאל; המרכז האוניברסיטאי אריאל בשומרון,,Ariel,32.10472,35.20944,
Aristotle University of Thessaloniki,جامعة آرسطوطليون; Аристотелев университет; Aristotelova univerzita v Soluni; Universität Thessaloniki; Α.Π.Θ; Α.Π.Θ.; ΑΠΘ; Αριστοτέλειο; Αριστοτέλειο Πανεπιστήμιο; Πανεπιστήμιο Θεσσαλονίκης; Aristotelian University; University of Thessaloniki; Universidad Aristoteles de Tesalonica; Universidad Aristoteles de Tesalónica; Universidad Aristóteles de Tesalónica; Universidad de Tesalónica; Université Aristote de Salonique; Universite Aristote de Thessalonique; Université aristote de thessalonique; Université de Salonique; Université de Thessalonique; Università di Salonicco; 아리스토틀 대학교 테살로니키; Universitas Aristotelis; Aristoteles Universiteit Thessaloniki; Universiteit van Thessaloniki; Universidade Aristóteles de Salônica; Аристотелевский Университет; Аристотелевский Университет в Салониках; Салоникский университет; Салоникский университет Аристотеля; Салоникский университет им Аристотеля; Салоникский университет имени Аристотеля; Университет Аристотеля в Тесалониках; Университет Аристотеля в Фесалониках; Университет им Аристотеля в Салониках; Университет им Аристотеля в Фесалониках; Университет имени Аристотеля в Салониках; Университет имени Аристотеля в Фесалониках; Aristotelesuniversitet i Thessaloniki; Thessalonikis Universitet; Universitetet i Thessaloniki; Університет Аристотеля в Салоніках; Фессалонікійський університет Аристотеля; 亚里士多德大学; アリストテレス・テッサロニキ大学; アリストテレス大学テッサロニキ校; テッサロニキ大学; テサロニキ・アリストテレス大学,Greece,Thessaloniki,40.63,22.958055555556,0000 0001 2152 5373
Arizona Center for Medieval and Renaissance Studies,ACMRS,,,33.42111111,-111.93166667,
Arizona Christian University,,United States of America,Arizona,33.5959,-112.026,
Arizona State University,ASU; ASU; Arizona State; ASU Tempe; Arizona State University; Universidad del Estado de Arizona; Universidad estatal de arizona; دانشگاه ایالتی اریزونا; Arizona State University; אוניברסיטת אריזונה סטייט; אוניברסיטת מדינת אריזונה; Arizona State University; 아리조나 주립 대학교; 아리조나 주립대학교; 애리조나 주립대학교; 애리조나주립대학교; Arizona State Univeristy; Arizona Staatsuniversiteit; Staatsuniversiteit van Arizona; Uniwersytet Stanowy Arizona; Arizona State University; Universidade do estado de arizona; Universidade do Estado de Arizona; Universidade do estado do arizona; Universidade estadual de arizona; Universidade Estadual de Arizona; Universidade estadual do arizona; Universidade Estadual do Arizona; Arizona State University; Arizona State University; 亞利桑拿州立大學,United States of America,Arizona,33.421111111111,-111.93166666667,
Arkansas State University,Arkansas State University-Jonesboro; دانشگاه ایالتی آرکانسا; دانشگاه ایالتی آرکنسا; دانشگاه ایالتی ارکانزاس; دانشگاه ایالتی ارکانسا; دانشگاه ایالتی ارکنسا,United States of America,Arkansas,35.841082,-90.679586,
Arkansas State University-Mountain Home,,United States of America,,36.3208,-92.3881,
Arkansas Tech University,ATU; Arkansas Tech; Tech,United States of America,Arkansas,35.2944,-93.1338,
Arkhangelsk State Technical University,АЛТИ; Архангельский государственный лесотехнический институт; Архангельский лесотехнический институт,Russia,,64.52888889,40.54916667,
Armenian College,,India,Kolkata,22.55488,88.35336,
Armenian National Agrarian University,Հայաստանի պետական ագրարային համալսարան; Հայաստանի Պետական Ագրարային Համալսարան; Հայկական գյուղատնտեսական ակադեմիա; ՀՊԱՀ; Государственный аграрный университет Армении,Armenia,Yerevan,40.18861111,44.52222222,
Armenian State Institute of Physical Culture,地元の学校,Armenia,,40.1761,44.5239,
Armenian State Pedagogical University,"Երևանի Մանկավարժական Ինստիտուտ; Խ, Աբովյանի անվան Հայկական պետական մանկավարժական համալսարան; Խ. Աբովյանի անվան Հայկական պետական մանկավարժական համալսարան; Խ. Աբովյանի անվան մանկավարժական ինստիտուտ; Խ. Աբովյանի անվան մանկավարժական համալսարան; Հայկական Մանկավարժական Ինստիտուտ; Армянский педагогический институт имени имени Хачатура Абовяна; Вірменський педагогічний інститут",Armenia,,40.17517778,44.52366111,
Armenian State University of Economics,Ժող; ՀՊՏՀ; Ереванский государственный экономический институт; Єреванський державний економічний інститут,Armenia,Yerevan,40.18422778,44.52474167,
Armstrong Atlantic State University,Armstrong; アームストロング・アトランティック州立大学,United States of America,Georgia,31.979,-81.16,
Army Logistics University,,United States of America,Virginia,37.225,-77.3464,
Art Center College of Design,Art Center School; کالج مرکز هنر طراحی; 帕薩迪納設計藝術中心學院; 藝術中心設計學院; アートセンター・カレジッジ・オブ・デザイン,United States of America,California,34.16922,-118.18522,
Artois University,,France,Arras,50.283,2.794,0000 0001 2364 777X
Arturo Michelena University,,Venezuela,,10.27333333,-68.00305556,
Arturo Prat University,,Chile,Iquique,-20.243611111111,-70.141388888889,
Artvin Çoruh University,,Turkey,Artvin,41.1832,41.8325,
"Arul Anandar College, Karumathur",,,,9.93455556,77.934275,
Arzamas State Pedagogical Institute,,Russia,,55.39250001,43.82194445,
Asahi University,岐阜歯科大学,Japan,,35.381744,136.690556,
Asahikawa University,北日本大学院大学; 北日本学院大学; 学校法人旭川大学,Japan,,43.81691667,142.44566667,
Ashikaga Institute of Technology,AIOT; 足利工大,Japan,,36.35319444,139.39705556,
Ashiya University,,Japan,,34.75277778,135.30713889,
Ashland University,AU; Ashland University; Ashland University; 阿什兰大学,United States of America,Ashland,40.8617,-82.3231,0000 0000 9038 7878
Ashoka University,,India,,28.9468,77.1016,
Asia LIFE University,,,,36.33185,127.40627,
Asia Pacific University College of Technology & Innovation,,Malaysia,,3.04805556,101.6925,
Asia Pacific University College of Technology & Innovation,,Malaysia,,3.04806,101.692,
Asia University,Asia University of Japan; 亜大; 亜細亜学園; 興亜協会; 財団法人興亜協会; Asia University of Japan,Japan,,35.70555556,139.53416667,
Asia University,"Asia University,Taiwan; 台中健康暨管理學院; 臺中健康暨管理學院",Taiwan,,24.046941,120.68652,
Asia-Pacific Institute of Creativity,,Taiwan,,24.682944444444,120.97023333333,
Asia-Pacific International University,Mission College; วิทยาลัยมิชชัน; วิทยาลัยมิชชั่น,Thailand,,14.674417,101.176869,
Asian Institute of Technology,Asian institute of technology; AIT Bangkok; アジアン工科大学; AIT; Asian Institute of Technology; สถาบันเทคโนโลยีแห่งเอเซีย; เอไอที; AIT; Học viện Công nghệ Châu Á,Thailand,,14.079116666667,100.61135555556,
Asian Social Institute,Asian Social Institute; Panimulaan ng Asyanong Lipunan; Panimulaan ng Lipunang Asyano,Philippines,,14.5775,120.989,
Asian University,Asian U; Asian University of Science and Technology; AUST; มหาวิทยาลัยวิทยาศาสตร์และเทคโนโลยีแห่งเอเชีย; มหาวิทยาลัยแห่งเอเชีย,Thailand,,12.84435611,101.01272106,
Asian University for Women,Asian university for women; Asian University for Women,Bangladesh,,22.358131,91.823843,
Asian University of Bangladesh,ইনডিপেন্ডেন্ট ইউনিভার্সিটি; Asian university of bangladesh; Asian University of Bangladesh,Bangladesh,,23.8692,90.3996,
Askew School of Public Administration and Policy,,United States of America,,30.4434,-84.2958,
Assam Agricultural University,Assam Agricultural University; Assam Agriculture University,India,,26.7229,94.1957,
Assam University,"Assam University; Assam University Silchar, Department of Computer Science; Assam University Silchar, Department of Mass Communication; Department of Law, Assam University; Department of Mass Communication, Assam University Silchar",India,,24.6916,92.7512,
Assiut University,,Egypt,,27.18777778,31.17027778,
Assumption University,,Canada,Ontario,42.3062,-83.0695,
Aston University,Aston Universiteit; Aston Business School; Universität Aston; Universidad de Aston; Universite Aston,United Kingdom,Birmingham,52.486,-1.8895,
Astrakhan State Technical University,,Russia,,46.3746,48.0563,
Astrakhan State University,Астраханский государственный педагогический институт; Астраханский государственный педагогический университет; Астраханский университет,Russia,Astrakhan,46.3774,48.0531,
Aswan University,,Egypt,,23.9989,32.8599,
Atatürk University,Atatürk Universität; Atatürk Üniversitesi; دانشگاه اتاترک; Université Atatürk; Zaningeha Ataturk; Atatürk Üniversitesi; Atatürk üniversitesi; Atatürk Üniversitesi Tıp Fakültesi,Turkey,Erzurum,39.9029,41.25284,
Atemajac Valley University,UNIVA; Universidad del valle de atemajac,Mexico,,20.6572,-103.42,
Ateneo de Davao University,,Philippines,,7.07222222,125.61305556,
Ateneo de Manila University,,Philippines,Quezon City,14.638888888889,121.07777777778,
Ateneo de Naga University,Ateneo de Naga; Ateneo de Naga University; Ateneo de Naga University,Philippines,,13.63,123.18416667,
Ateneo de Zamboanga University,Universidad del Ateneo de Zamboanga; Ateneo de Zamboanga; Universidad del Ateneo de Zamboanga; Ateneo de Zamboanga University,United States of America,,6.86666667,122.06666667,
Athabasca University,Athabasca University; 阿薩巴斯卡大學,Canada,Alberta,54.722397222222,-113.30338611111,
Athens School of Fine Arts,Ανώτατη Σχολή Καλών Τεχνών; ΑΣΚΤ; Афинская школа искусств; Школа изящных искусств (Афины); Афінська школа мистецтв; アテネ芸術学校,Greece,,37.962,23.689,0000 0001 0258 7376
Athens Technical College,,United States of America,,33.9894,-83.3397,
Athens University of Economics and Business,ΑΣΟΕΕ; ΟΠΑ; アテネ経済大学,Greece,Athens,37.993888888889,23.732222222222,0000 0001 2179 8267
Atish Dipankar University of Science and Technology,ইনডিপেন্ডেন্ট ইউনিভার্সিটি; Atish dipankar university of science and technology; Atish Dipankar University of Science and Technology,Bangladesh,,23.7978,90.353,
Atlanta Technical College,Atlanta Area Tech; Atlanta Technical Institute,United States of America,,33.7119,-84.4073,
Atlanta University Center,,United States of America,Georgia,33.749,-84.411,
Atlantic University,,United States of America,Virginia,36.8927,-75.9902,
Atomi University,跡見女子大学,Japan,Niiza City,35.81711111,139.54291667,
Atılım University,دانشگاه اتیلیم,Turkey,,39.81351,32.72368,
Auburn University,AUM; AU; 奧本大學; 奧本大學,United States of America,Auburn,32.603374,-85.486078,
Auburn University at Montgomery,AUM; Auburn Montgomery; Auburn University Montgomery; 奧本大學蒙哥馬利分校; 歐本大學蒙哥马利分校,United States of America,Montgomery,32.368779,-86.177036,
Auckland University of Technology,Auckland Technical School; AUT University; Seddon Memorial Technical College; AUT; AUT University; 오클랜드 공대,New Zealand,,-36.8533,174.7667,
Augsburg College,,United States of America,Minneapolis,44.9659,-93.2416,
Augusta State University,,United States of America,Georgia,33.4768,-82.023,
Augustana University,Augie; Augustana (SD); Augustana (South Dakota); Augustana College; Augustana College (SD); Augustana of South Dakota,United States of America,Sioux Falls,43.526861111111,-96.737027777778,
Aurel Vlaicu University of Arad,UAV; Universitatea Aurel Vlaicu,Romania,,46.17363889,21.31713889,
Aureus University School of Medicine,,Aruba,,12.50674444,-70.00660556,
Auro University of Hospitality and Management,,India,,21.1796,72.7348,
Aurora University,,United States of America,Aurora,41.754722,-88.347778,
Austin Center for Design,,United States of America,,30.276129,-97.716059,
Austin Peay State University,APSU; دانشگاه ایالتی استین پی; دانشگاه دولتی آستین پی; دانشگاه دولتی استین پی,United States of America,Tennessee,36.5323,-87.3546,
Australian Catholic University,Australische Katholische Universität; Australian Catholic University; Universitas katolik australia; オーストラリア・カトリック大学; ACU National; 澳大利亞天主教大學,Australia,Brisbane,-27.378,153.089,
Australian College of Applied Education,,Australia,,-31.9499,115.854,
Australian Lutheran College,,,,-34.909141,138.592774,
Australian National University,Australische Nationaluniversität; ANU; Phoenix Prize for Spiritual Art; The Australian National University; Australian National University; The Australian National University; Universidad nacional de australia; ANU; Austraalia Rahva Ülikool; Austraalia Riiklik Ülikool; Australian National University; Australian National University; Universite nationale australienne; האוניברסיטה האוסטרלית הלאומית; האוניברסיטה הלאומית האוסטרלית; Australian National University; Università nazionale australiana; 오스트레일리아 국립대학교; 호주 국립 대학교; 호주국립대학교; Australian National University; Universidade Nacional Australiana; Australian National University; ANU; The Australian National University; ANU; Australian National University; The Australian National University; Avustralya Ulusal Üniversitesi; Національний університет Австралії; Đại học Quốc gia Australia; Australian National University; ANU; Australian National University; 澳洲国立大学; 澳洲國家大學; 澳洲國立大學,Australia,Canberra,-35.2778,149.1205,
Automotive Dealership Institute,,United States of America,Arizona,33.532337,-111.925168,
Autonomous University of Aguascalientes,UAA; UAA; Universidad Autonoma de Aguascalientes,Mexico,,21.913380555556,-102.315025,
Autonomous University of Baja California,UABC; University of Baja California; Universidad Autonoma de Baja California; バハカリフォルニア大学; Autonome Universiteit van Neder-Californie; Autonome Universiteit van Neder-Californië; Universidad Autonoma de Baja California; Universidad Autónoma de Baja California; Universidad autónoma de baja california; Universidad Autónoma de Baja California; Universidade autónoma da baja california; Universidade Autónoma da Baja California; Universidade autônoma da baja california,México,Baja California,32.6634,-115.469,
Autonomous University of Baja California Sur,UABCS; Universidad Autonoma de Baja California Sur,Mexico,,24.100874,-110.315121,
"Autonomous University of Baja California, Campus Mexicali",,,,32.632199,-115.444435,
Autonomous University of Barcelona,UAB; Universidad Autónoma de Barcelona; Computer Vision Center; Universitat Autònoma de Barcelona; UAB,Spain,Cerdanyola del Vallès,41.500277777778,2.1077777777778,
Autonomous University of Campeche,Universidad Autonoma de Campeche,Mexico,,19.8275,-90.55583333,
Autonomous University of Chihuahua,Universidad Autonoma de Chihuahua,Mexico,,28.655204,-106.087289,
Autonomous University of Coahuila,U A de C; U A de C.; U A. de C.; U.A. de C.; UA de C; UAdeC; Universidad Autonoma de Coahuila,Mexico,,26.9457,-101.416,
Autonomous University of Durango,,Mexico,Durango,24.04795278,-104.6314944,
Autonomous University of Madrid,UAM; جامعة مدريد المستقلة; Universidad Autónoma de Madrid; Universidad Autónoma de Madrid; la Autónoma; Universidad Autónoma de Madrid; Universidad Autónoma de Madrid; Universidad Autonoma de Madrid; Universidad de Canto Blanco; UAM; Universidad Autonoma de Madrid; Universidad Autónoma de Madrid; Universite autonome de Madrid; Université Autonome de Madrid; UAM; Università autonoma di Madrid; Universidad Autonoma de Madrid; Universidad Autónoma de Madrid; la Autónoma; UAM; Universidad Autónoma de Madrid; Universidade Autônoma de Madri; มหาวิทยาลัยเอาโตโนมาแห่งมาดริด,Spain,Madrid,40.5453,-3.69611,0000 0001 1957 8126
Autonomous University of Nayarit,Federación de Estudiantes de la Universidad Autónoma de Nayarit; UAN; Universidad Autonoma de Nayarit,Mexico,,21.49194444,-104.89194444,
Autonomous University of Queretaro,,Mexico,,20.591046,-100.410127,
Autonomous University of Sinaloa,Universidad Autonoma de Sinaloa,Mexico,,24.82555556,-107.38138889,
Autonomous University of Tamaulipas,UAT; Universidad Autonoma de Tamaulipas,Mexico,,22.276151,-97.86296,
Autonomous University of Tlaxcala,UATx; UATX,Mexico,,19.302203,-98.243405,
Autonomous University of Zacatecas,,Mexico,,22.773064,-102.575131,
Ave Maria University,AMU,United States of America,Florida,26.3363,-81.438,
Averett University,AU,United States of America,Virginia,36.5789,-79.4122,
Avila University,,United States of America,Missouri,38.9126,-94.5915,
Avinash College of Commerce,,India,Hyderabad,17.4148,78.4017,
Avrasya University,,Turkey,,40.9924,39.7684,
Ayotzinapa Rural Teachers’ College,Raúl Isidro Burgos Rural Teachers’ College; Escuela Normal Rural Raúl Isidro Burgos,Mexico,Ayotzinapa,17.55333333,-99.41027778,
Ayush & Health Sciences University Chhattisgarh,,India,,21.246,81.605,
Azabu University,東京獣医講習所; 麻布獣医学校; 麻布獣医専門学校; 麻布獣医畜産学校; 麻布獣医畜産専門学校; 麻布獣医科大学,Japan,,35.575,139.38833333,
Azad Jammu and Kashmir Medical College,,Pakistan,,34.21,73.28,
Azad University Tehran medical Branch,دانشگاه آزاد اسلامی تهران پزشکی; دانشگاه آزاد اسلامی واحد تهران پزشکی; دانشگاه آزاد تهران پزشکی; دانشگاه ازاد اسلامی تهران پزشکی; دانشگاه ازاد اسلامی واحد پزشکی تهران; دانشگاه ازاد اسلامی واحد تهران پزشکی; دانشگاه ازاد تهران پزشکی,Iran,,35.777714,51.433736,
Azarbaijan Shahid Madani University,آذربایجان بیلیم‌یوردو; آذربایجان دانشگاهی; آذربایجان بیلیم‌یوردو; آذربایجان دانشگاهی; شهید مدنی دانشگاهی; تربیت معلم آذربایجان; تربیت معلم اذربایجان; دانشگاه آذران; دانشگاه آذربایجان; دانشگاه اذران; دانشگاه اذربایجان; دانشگاه تربیت معلم آذربایجان; دانشگاه تربیت معلم اذربایجان; دانشگاه شهید مدنی; دانشگاه شهید مدنی اذربایجان,Iran,,37.81235,45.94894167,
Azerbaijan Diplomatic Academy,Azərbaycan Respublikası Xarici İşlər Nazirliyinin Diplomatik Akademiyası,Azerbaijan,,40.3946,49.8492,
Azerbaijan State Marine Academy,Azərbaycan Dəniz Akademiyası,Azerbaijan,,40.3953,49.8822,
Azerbaijan State Oil Academy,ADNA; Azərbaycan Dövlət Neft Akademiyası; Azərbaycan Neft və Kimya İnstitutu; Azərbaycan Sənaye İnstitutu; Neft Akademiyası; Aserbaidschanische Staatliche Akademie für Erdöl und Erdgas; Aserbaidschanisches Institut für Industrie; Әзірбайжан Мемлекеттік Мұнай Академиясы; Әзірбайжан мұнай және химия институты; Әзірбайжан мұнай институты; Әмма; Баку мұнай институты; Мәлібеков атындағы Әзірбайжан мұнай және химия институты; АГНА; Азербайджанская Государственная Нефтяная Академия; Азербайджанский индустриальный институт; Азербайджанский институт нефти и химии; Азербайджанский институт нефти и химии им. М. Азизбекова; Азербайджанский нефтяной институт; АЗИ; Азинефтехим; Бакинский институт нефти и газа; Azerbaycan Devlet Neft Akademisi; Azerbaycan devlet petrol akademisi; Bakü Devlet Petrol Akademisi; Бакинський інститут нафти і газу,Azerbaijan,,40.3785,49.8485,
Azerbaijan State University of Culture and Arts,ADMİU; Azərbaycan Dövlət İncəsənət İnstitutu; Azərbaycan Dövlət İncəsənət Universiteti; Azərbaycan Dövlət Mədəniyyət və İncəsənət İnstitutu; Azərbaycan İncəsənət İnstitutu; Azərbaycan Mədəniyyət və İncəsənət İnstitutu; Azərbaycan Mədəniyyət və İncəsənət Universiteti; Əli bəy Hüseynzadə adına Azərbaycan Dövlət Mədəniyyət və İncəsənət Universiteti; M.A.Əliyev adına Azərbaycan Dövlət İncəsənət İnstitutu; M.Əliyev adına Azərbaycan Dövlət İncəsənət İnstitutu; АГУКИ,Azerbaijan,,40.38,49.821,
Azerbaijan Technical University,Azərbaycan Politexnik İnstitutu; Çingiz İldırım adına Azərbaycan Politexnik İnstitutu; Çingiz İldrım adına Azərbaycan Politexnik İnstitutu,Azerbaijan,,40.37027778,49.81527778,
Azerbaijan University of Languages,ADU; Azərbaycan Dövlət Dillər İnstitutu; Azərbaycan Xarici Dillər İnstitutu; Xarici Dillər Universiteti; Азербайджанский университет иностранных языков,Azerbaijan,,40.3836,49.8431,
Azusa Pacific University,دانشگاه ازوزا پاسیفیک; Asuza Pasific University,United States of America,California,34.12971,-117.88888,
Ağrı İbrahim Çeçen University,Ağrı Dağı University; ICUA; Zanîngeha Îbrahîm Çeçen a Agiriyê; Ağrı Dağı Üniversitesi; Ağrı Eğitim Fakültesi; Ağrı Üniversitesi,Turkey,Ağrı,39.7178,43.0271,
B. R. Ambedkar Bihar University,Babasaheb Bhimrao Ambedkar Bihar University,India,Bihar,26.1131,85.375,
BPP University,,United Kingdom,,51.505,-0.223056,
BRAC University,ইনডিপেন্ডেন্ট ইউনিভার্সিটি; Bangladesh Rural Advancement Committee University; BRAC University; BRACU,Bangladesh,,23.78019444,90.407175,0000 0001 0746 8691
Baba Ghulam Shah Badshah University,,India,Jammu and Kashmir,33.3938,74.3433,
"Baba Jagan Nath University, NCR",,,,28.6256,76.7477,
Babeș-Bolyai University,UBB; Universitatea Babes-Bolyai; Universitatea Babeș-Bolyai; Клушки универзитет; 克魯日巴比什-波雅依大學; バベシュ=ボーヤイ大学; バベシュ・ボリャイ大学クルジュ,Romania,Cluj-Napoca,46.767777777778,23.591111111111,0000 0004 1937 1397
Bacha Khan University,"Bacha Khan University, Charsadda; Университет Бача Хан; Университет Бача Хана",Pakistan,Charsadda,34.136916666667,71.83825,
Badakhshan University,,Afghanistan,,37.10088,70.5562,
Baekseok University,기독신학교; 백석대; 천안대; 천안대학교,South Korea,,36.84021,127.18322,
Baghdad College for Economic Sciences University,كليه بغداد للعلوم الاقتصاديه الجامعه,Iraq,,33.34083333,44.33472222,
Baghdad Pharmacy College,كليه بغداد للصيدله,Iraq,,33.3497143,44.382707,
Bahauddin Zakariya University,,Pakistan,,30.26361111,71.50972222,
Bahia State University,Museu de ciência e tecnologia da uneb; Uneb; UNEB; Universidade do estado da bahia,Brazil,,-23.55,-46.6333,
Bahir Dar University,ባህር ዳር ዩኒቨርሲቲ; ባሕር ዳር ዩኒቨርስቲ; Bahir Dar University; Université de Bahir Dar,Ethiopia,Bahir Dar,11.59722222,37.39583333,
Bahrain Polytechnic,,Bahrain,,26.165,50.54555556,
Bahçeşehir University,Bahçeşehir Üniversitesi; دانشگاه باغچه شهر,Turkey,,41.041667,29.009444,0000 0001 2331 4764
Baika Women's University,,Japan,,34.84305556,135.53527778,
Baiko Gakuin University,梅光女学院大学; 梅光学院,Japan,,33.9675,130.9325,
Baker University,Baker; BU; Baker U,United States of America,Kansas,38.7775,-95.187777777778,
Baku Academy of Music,Azərbaycan Dövlət Konservatoriyası; Üzeyir Hacıbəyov adına Bakı Musiqi Akademiyası; آکادمی موسیقی حاجی بیف باکو; آکادمی موسیقی حاجی‌بیف باکو; اکادمی موسیقی باکو; اکادمی موسیقی حاجی بیف باکو; اکادمی موسیقی حاجی‌بیف باکو; کنسرواتوار دولتی آذربایجان; کنسرواتوار دولتی اوزیر حاجی‌بیف آذربایجان; کنسرواتوار دولتی حاجی‌بیف آذربایجان; کنسرواتوار موسیقی باکو; کنسرواتوار موسیقی حاجی‌بیف باکو; Азербайджанская государственная консерватория; Азербайджанская консерватория; Бакинская Академия музыки; Бакинская консерватория; Азербайджанська державна консерваторія; Азербайджанська консерваторія; Бакинська консерваторія; Бакінська музична академія,Azerbaijan,Baku,40.39527778,49.88222222,
Baku Slavic University,BSU; M.F.Axundov adına Azərbaycan Dövlət Pedaqoji İnstitutu; Mirzə Fətəli Axundov adına Azərbaycan Pedaqoji Rus Dili və Ədəbiyyatı İnstitutu; Азербайджанский педагогический институт русского языка и литературы им. М. Ф. Ахундова,Azerbaijan,,40.3836,49.8436,
Baku State University,Azərbaycan Dövlət Universiteti; BDU; BDU-nun Hüquq fakültəsi; S.M.Kirov adına Azərbaycan Dövlət Universiteti; Universidad de Bakú; Université de Bakou; Universitas Negara Baku; Азербайджанский государственный университет; Azerbaycan Devlet Üniversitesi; Bakı Dövlət Universiteti; Азербайджанський державний університет; Азербайджанський державний університет імені С. М. Кірова; Бакинський університет,Azerbaijan,Baku,40.373333,49.811111,
"Balakovo Institute of Engineering, Technology and Management",БИТТУ,Russia,,52.02105557,47.77125001,
Baldwin Wallace University,Baldwin Wallace; Baldwin-Wallace; Baldwin-Wallace College; Baldwin-Wallace College; Baldwin-Wallace College; Baldwin Wallace University; Baldwin-Wallace College; Институт Болдуина; Колледж Болдуина-Уоллеса,United States of America,Berea,41.371111111111,-81.847777777778,
Baliapara High School And College,,,,23.8235,89.1065,
Balkh University,,Afghanistan,,35.7038002,51.39500046,
Ball State University,BSU; Ball U; Digital Media Repository; Universidad Ball State; ボール州立大学; Ball State University; Ball State University,United States of America,Indiana,40.1983,-85.4089,
Balseiro Institute,Balseiro,Argentina,,-41.16583333,-71.44416667,
Baltic International Academy,Baltic Russian Institute; Baltijas Krievu institūts; BSA; Балтийская Международная Академия,Latvia,,56.9378,24.1558,
Baltic State Technical University,БГТУ «Военмех» им. Д. Ф. Устинова,Russia,Saint Petersburg,59.9164,30.3167,
Baltic University,,Germany,,53.6431,9.78667,
Banaras Hindu University,"Бенаресский университет; Индуистский университет Бенареса; BHU Banares Hindu University; కాశీ విశ్వవిద్యాలయం; కాశీ హిందూ విశ్వ విద్యాలయము; కాశీ హిందూ విశ్వవిద్యాలయం; బెనారస్ హిందూ విశ్వవిద్యాలయము; କାଶୀ ହିନ୍ଦୁ ବିଶ୍ଵବିଦ୍ୟାଳୟ; バーナラス・ヒンズー大学; バナーラス・ヒンズー大学; Banaras Hindu University; Benaras Hindu University; Benares Hindu University; Bhu; Department of Library and Information Science, Banaras Hindu University, Varanasi; Faculty of Arts,BHU; Institute of Technology BHU; Institute of Technology, Benaras Hindu University; Library & Information Science, BHU; University of Benares; University of Varanasi; Varanasi University; VishwaKarma Hostel; বেনারস হিন্দু বিশ্ববিদ্যালয়; University of Benares; Benares Hindu University; काशी हिंदू विश्वविद्यालय; काशी हिन्दू विश्वविद्यालय; बनारस हिंदू विश्वविद्यालय; बनारस हिन्दू युनिवर्सिटी; बनारस हिन्दू विश्वविद्यालय; Banaras Hindu University; ബനാറസ് ഹിന്ദു സർവകലാശാല; വരാണസി ഹിന്ദു സർവകലാശാല; Banaras hinduuniversitet; Varanasi Hindu University; Varanasi hinduuniversitet; Banaras Hindu University; Бенаресский индусский университет",India,Varanasi,25.2644,82.995,
Banat University of Agricultural Sciences and Veterinary Medicine,USABT; Universite des sciences agricoles du Banat; Universitatea de Ştiinţe Agricole şi Medicină Veterinară a Banatului; Universitatea de Științe Agricole și Medicină Veterinară a Banatului; Universitatea de Ştiinţe Agricole şi Medicină Veterinară a Banatului din Timişoara; USAMVBT,Romania,Timișoara,45.782676,21.216778,
Bangabandhu Sheikh Mujibur Rahman Science and Technology University,,Bangladesh,,22.9661,89.8171,
Bangabandhu Textile Engineering College,,,,24.3759,89.9693,
Bangalore University,BU; बंगलुरु विश्वविद्यालय; బెంగుళూరు యూనివర్సిటీ,India,Karnataka,12.938775,77.50318056,
Bangkok University,ม.กรุงเทพ; วิทยาลัยกรุงเทพ; หอสมุดสุรัตน์ โอสถานุเคราะห์,Thailand,,13.71141667,100.58190833,
Bangkokthonburi University,มหาวิทยาลัยกรุงเทพธนบุรี วิทยาเขตจอมทอง; วิทยาลัยกรุงเทพธนบุรี,Thailand,Thawi Watthana,13.766522,100.346503,
Bangladesh Agricultural Research Institute,,Bangladesh,,24.369122,88.66175,
Bangladesh Agricultural University,Bangladesh agricultural university; Bangladesh Agricultural University; Bangladesh Agriculture University,Bangladesh,,24.722,90.4267,
Bangladesh College of Physicians and Surgeons,,Bangladesh,,23.7775,90.3988,
Bangladesh Computer Society,,,,22.808409,89.556247,
"Bangladesh Home Economics College, Dhaka",,,,23.7529,90.3875,
Bangladesh Islami University,,Bangladesh,,23.7212,90.4287,
Bangladesh Marine Academy,,Bangladesh,,22.2426,91.8391,
Bangladesh Sweden Polytechnic Institute,,,,22.505678,92.211985,
Bangladesh University,ইনডিপেন্ডেন্ট ইউনিভার্সিটি; Bangladesh University,Bangladesh,,23.7629,90.3674,
Bangladesh University of Business and Technology,ইনডিপেন্ডেন্ট ইউনিভার্সিটি; Bangladesh university of business and technology; Bangladesh University of Business and Technology; বাংলাদেশ ব্যবসায় ও প্রযুক্তি বিশ্ববিদ্যালয়,Bangladesh,,23.8065,90.3522,
Bangladesh University of Engineering and Technology,"আহসানউল্লাহ ইঞ্জিনিয়ারিং কলেজ; পানি সম্পদ কৌশল বিভাগ, বাংলাদেশ প্রকৌশল বিশ্ববিদ্যালয়; বাংলাদেশ প্রকৌশল এবং প্রযুক্তি বিশ্ববিদ্যালয়; বুয়েট; BUET",Bangladesh,,23.726996,90.392858,
Bangladesh University of Textiles,College of Textile Engineering and Technology,Bangladesh,,23.7604,90.4001,
Bangor University,"Bangor University; Bangorská universita; Coleg Prifysgol Cymru, Bangor; Coleg Prifysgol Gogledd Cymru; Prifysgol Cymru Bangor; Prifysgol Cymru, Bangor; Universidad de bangor; Bangorreko Unibertsitatea; Bangor University; Бангорський Університет; 班格爾大學; バンガー大学; バンゴア大学; University College of North Wales; University of Wales at Bangor",United Kingdom,Bangor,53.2289,-4.1301,
Banha University,زانکۆی بەنها; 반하 대학교; 반하대; 반하대학; 반하대학교,Egypt,Banha,30.47111111,31.18166667,
Banking University of Ho Chi Minh City,Đại học Ngân hàng Thành phố Hồ Chí Minh,Vietnam,,10.8584,106.763,
Bar-Ilan University,Universitas Bar-Ilan; バル・イラン大学; Bar Ilan Universiteit; Bar-Ilan; Bar-Ilan Universiteit; Bar-Ilan University; Bar-Ilan-universiteit; Universidade bar ilan; Бар-Иланский университет; Университет Бар-Илан; Университет Бар-Илана; Университет им. Бар-Илана; جامعه بار إيلان; Bar Ilanova univerzita; Univerzita Bar Ilan; Bar-Ilan University; Universität Bar-Ilan; Bar Ilan University; Universidad Bar Ilan; Universidad de Bar-Ilan; دانشگاه بارایلان; دانشگاه مذهبی برایلان; Bar Ilan; Bar-Ilan; Université Bar Ilan; Universite Bar-Ilan; Université de Bar Ilan; Université de Bar-Ilan; אוניברסיטה בר-אילן; אוניברסיטת בר אילן; Bar-Ilan University,Israel,Safed,32.067777777778,34.8425,
Baranovichi State University,,Belarus,,53.124642,26.039899,
Barisal Polytechnic Institute,,,,22.697675,90.361302,
Barry University,生死邊緣,United States of America,Florida,25.878836111111,-80.197269444444,
Bashkir State Agrarian University,Башкирский Государственный Аграрный Университет; Башкирский сельскохозяйственный институт; БГАУ; БСХИ,,,55.8575,37.691943888889,
Bashkir State University,바슈키르 국립대학교; 바슈키르공립대학교; БашГУ; Башкирский педагогический институт; Башкирский университет; Уфимский педагогический институт; Уфимский учительский институт; Башкортстан дәүләт университеты; Башкортстан университеты; БДУ,Russia,Ufa,54.7214,55.9336,
Bastyr University,,United States of America,Washington,47.7304,-122.253,
Bates College,Bates; Bates college; Batesin yliopisto; ベイツカレッジ; Bates college; Bates college; Bates college,United States of America,Maine,44.105555555556,-70.204166666667,
Bath Spa University,Bath College of Higher Education; Bath Spa University College; Universite de Bath Spa,United Kingdom,Bath,51.375555555556,-2.4383333333333,
Batman University,,Turkey,Batman,37.78893889,41.06496667,
Batumi State Maritime Academy,ბსსა,Georgia,,41.646983,41.621786,
Bauhaus University,"Bauhaus Universität Weimar; Bauhaus-Universität; Hochschule für Architektur und Bauwesen Weimar; Hochschule für Baukunst und Bildende Künste Weimar; Hochschulen für Baukunst, bildende Künste und Handwerk Weimar; Staatliche Hochschulen für Baukunst, bildende Künste und Handwerk Weimar; Weimarer Hochschule für Bildende Kunst; Bauhaus-Universitat Weimar; 包豪斯大學; ヴァイマール建築大学",Germany,,50.9745,11.3291,
Bauman Moscow State Technical University,"Московски държавен технически университет ""Бауман""; MSTU; Moskovan teknillinen yliopisto N.E.Bauman; BMSTU; Universite Technique d'Etat de Moscou; Université technique d'état de moscou; Université technique d'État de Moscou - Ecole Bauman; Université technique d'État moscovite; Université technique d'État moscovite Bauman; Université technique de Moscou; Bauman MSTU; MSTU; MSTU Bauman; Staats-Technische Universiteit van Moskou; Бауманка; ИМТУ; МВТУ им. Н.Э. Баумана; МВТУ имени Баумана; МВТУ имени Н. Э. Баумана; МГТУ; МГТУ им. Баумана; МГТУ им. Н. Э. Баумана; МГТУ им. Н.Э. Баумана; МГТУ имени Баумана; Московский государственный технический университет им. Н. Э. Баумана; Московский механико-машиностроительный институт им. Н. Э. Баумана; Московский механико-машиностроительный институт имени Н. Э. Баумана; Московское высшее техническое училище имени Баумана; Московское высшее техническое училище имени Н. Э. Баумана; Вище технічне училище імені Баумана; МВТУ; МВТУ ім. Баумана; МВТУ ім. М.Баумана; МДТУ; МДТУ ім. Баумана; Московський державний технічний університет імені М. Е. Баумана; Đại học Kỹ thuật Bau-man; Đại học Kỹ thuật Moskva Bau-man; Đại học Kỹ thuật Quốc gia Bau-man; Đại học kỹ thuật quốc gia mang tên Bauman; Đại học Tổng hợp Kỹ thuật Moskva; Đại học Tổng hợp Kỹ thuật Quốc gia Moskva; Đại học Tổng hợp Kỹ thuật Quốc gia Moskva mang tên Bau man; 包曼工学院; 鲍曼工学院; 鲍曼莫斯科国立理工大学; 鲍曼高等工业学院; バウマン・モスクワ工科大学; バウマンモスクワ高等技術学校; バウマン記念モスクワ国立工科大学; N.E.バウマン記念モスクワ国立工科大学; バウマン名称モスクワ技術大学",Russia,Moscow,55.765833333333,37.684722222222,
Bayero University Kano,Bayero University,Nigeria,,11.98055556,8.47944444,
Baykalsky State University of Economics and Law,БГУЭиП; БГУЭП; Иркутский институт народного хозяйства; Факультет мировой экономики БГУЭП; Факультет Мировой Экономики БГУЭП; Факультет экономики предприятия и предпринимательской деятельности БГУЭП,Russia,,52.28055556,104.2827778,
Baylor Law School,,United States of America,,31.5545,-97.1154,
Baylor University,Baylor Institute for Faith and Learning; Université de Baylor; Università di Baylor; Waco University; Uniwersytet Baylor; Baylor University; Universidade de baylor; Universidade de Baylor; Baylor University; Бэйлорский университет; 贝勒大学; ベイラー・ロースクール,United States of America,Waco,31.5472,-97.1139,0000 0001 2111 2894
Başkent University,Başkent University; Başkent-universitetet; Başkent Üniversitesi; Universidade Baskent; Universidade de Başkent,Turkey,,39.8875,32.653889,
Begum Gulchemonara Trust University,ইনডিপেন্ডেন্ট ইউনিভার্সিটি; Begum Gulchemonara Trust University; বেগম গুলশেনার ট্রাস্ট ইউনিভার্সিটি,Bangladesh,,22.360157,91.827651,
"Begumgonj Textile Engineering College, Noakhali",,Bangladesh,,22.942645,91.105499,
Beihang University,Beihang-Universität; École centrale de Pékin; Universität für Raum- und Luftfahrt Peking; Beihang; BUAA; Université Beihang; Universite d'aeronautique et d'astronautique de Pekin; Пекинский университет авиации и космонавтики; Buaa; 北京航空学院; 北京航空航天大學,People's Republic of China,,39.98,116.34083333333,
Beijing Foreign Studies University,Beijing Foreign Studies Universitet; Beijing Foreign Studies University; Beijinger Fremdsprachenuniversität; Fremdspracheninstitut Beijing; Fremdsprachenuniversität Beijing; Fremdsprachenuniversität Peking; Beijing Foreign Studies University; Universidad de Estudios Extranjeros; Universidad de Estudios Extranjeros de Pekin; Universidad de Lenguas Extranjeras de Pekin; 北京外国語学院; Beijing universitet for utenlandsstudier; Beijing Waigoyu Daxue; Beiwai; Beijings Institut för Främmande Språk; BFSU; 北京俄語學院; 北京外国语学校; 北京外国语学院; 北外; 华北大学二部; 延安外国语学校,People's Republic of China,Beijing,39.954166666667,116.30416666667,
Beijing Institute of Technology,Beijing Institute of Technology; BIT; Institut technologique de Pékin; 北京工业学院; 北京理工大学,People's Republic of China,Beijing,39.957777777778,116.30833333333,
Beijing International Studies University,北京第二外国語学院,People's Republic of China,Beijing,39.909286,116.557699,
Beijing Jiaotong University,交通大学北京学校; Beijing Jiaotong-universitet; 北京交大; 北京铁道学院; 北方交通大学,People's Republic of China,Beijing,40.000555555556,116.32611111111,
Beijing Language and Culture University,Beiyu; Beijing Language and Culture University; BLCU; Pekinger Sprachen Universität; Sprachen- und Kultur-Universität Peking; Beijing Language and Culture University; Blcu; BLCU; 北京言語大学; 北京語言学院; 北京語言文化大学; 語言学院; 베이징 어언 대학; 베이징 어언대학; 베이징 언어 대학; 베이징 위옌 대학; 북경어언대학; 北京語言大學; 北京语言学院; 語言大學; 語言大學,People's Republic of China,,39.993333333333,116.33777777778,
Beijing Normal University,Pekin Universiteti,People's Republic of China,Beijing,39.957222222222,116.3625,
Beijing People's Police College,北京人民警察学院; 北京人民警察學院; 北京市人民警察学校; 北京市人民警察學校; 北京市公安学校; 北京市公安學校; 北平市人民政府公安局公安学校; 北平市人民政府公安局公安學校,,,40.249649,116.172592,
Beijing Sport University,北京体育学院,People's Republic of China,,40.0299048,116.3192935,
Beijing University of Chemical Technology,BUCT; 北京化工学院,People's Republic of China,,39.968888888889,116.41527777778,
Beijing University of International Business and Economics,Beijing Institute of Foreign Trade; UIBE; 外经贸; 对外经贸大学; 经贸大; 经贸大学; 贸大,People's Republic of China,Beijing,39.9792,116.421,
Beijing University of Posts and Telecommunications,北京邮电学院; 北邮,People's Republic of China,,39.9598,116.352,
Beijing University of Technology,,People's Republic of China,,39.87111111,116.4775,
Beirut Arab University,جامعة بيروت; جامعة بيروت العربية; جامعه بيروت العربيه; Đại học Beirut Arab,Lebanon,,33.8733,35.4969,
Belarusian Agricultural Academy,БГСХА; Горыгорецкая земледельческая школа; БДСГА; Беларуская сельскагаспадарчая акадэмія; БСГА; Горацкая сельгаспадарчая акадэмія; Горацкі інстытут; Горы-Горацкі земляробчы інстытут; Горы-Горацкі сельскагаспадарчы інстытут; БДСГА; Беларуская сельскагаспадарчая акадэмія; Беларускі сельскагаспадарчы інстытут; БСГА; БСГІ; Горацкі сельскагаспадарчы інстытут; Горы-Горацкі земляробчы інстытут; Białoruska Akademia Rolnicza w Horkach; Białoruska Państwowa Akademia Gospodarki Wiejskiej; Белорусская государственная сельскохозяйственная академия; Горыгорецкий земледельческий институт; Горыгорецкое земледельческое училище,Belarus,,54.296388888889,30.989166666667,
Belarusian National Technical University,Беларускі дзяржаўны палітэхнічны інстытут; Беларускі нацыянальны тэхнічны універсітэт; Беларускі палітэхнічны інстытут; Беларускі політэхнічны інстытут; БНТУ; БПІ; БДПА; Беларуская дзяржаўная політэхнічная акадэмія; Беларускі Нацыянальны Тэхнічны Ўнівэрсытэт; Беларускі палітэхнічны інстытут; Беларускі політэхнічны інстытут; БНТУ; БПІ; Weissrussische Nationale Technische Universität; Weißrussische Nationale Technische Universität; БГПА; БГПИ — БГПА — БНТУ; Белорусская государственная политехническая академия; Белорусский государственный политехнический институт; Белорусский политехнический институт; Белорусский политехнический институт им. И. В. Сталина; БНТУ; Мінський політехнічний інститут,Belarus,Minsk,53.92083333,27.59277778,
Belarusian State Academy of Arts,Беларуская акадэмія мастацтваў; Беларускі дзяржаўны тэатральна-мастацкі інстытут; Беларускі дзяржаўны тэатральны інстытут; Беларускі тэатральна-мастацкі інстытут; Мінскі мастацкі інстытут; Мінскі тэатральны інстытут; БДАМ; Беларуская акадэмія мастацтваў; Беларускі дзяржаўны тэатральна-мастацкі інстытут; БГАИ; БГТХИ; Белорусский государственный театрально-художественный институт; Белорусский театрально-художественный институт; БТХИ; Минский театральный институт,Belarus,,53.92277778,27.60111111,
Belarusian State Academy of Music,БДАМ; Беларуская акадэмія музыкі; Беларуская дзяржаўная кансерваторыя; Беларуская кансерваторыя; académie d'état de musique du Biélorussie; académie nationale de musique du Bélarus; conservatoire de Minsk; БГАМ; Белорусская государственная консерватория; Белорусская консерватория; Минская консерватория; Білоруська державна консерваторія; Білоруська консерваторія,Belarus,,53.90277778,27.55777778,
Belarusian State Economic University,БДІНГ; БДЭУ; Беларускі дзяржаўны інстытут народнай гаспадаркі; Беларускі дзяржаўны інстытут народнай гаспадаркі ім. В. У. Куйбышава; Беларускі дзяржаўны інстытут народнай гаспадаркі імя В. У. Куйбышава; Беларускі дзяржаўны эканамічны універсітэт; Мінскі інстытут народнай гаспадаркі; БДІНГ; БДЭУ; Беларускі дзяржаўны інстытут народнай гаспадаркі; Беларускі дзяржаўны інстытут народнай гаспадаркі імя В. У. Куйбышава; БГИНХ; БГЭУ; Белорусский государственный институт народного хозяйства; Белорусский государственный институт народного хозяйства им. В. В. Куйбышева; Белорусский государственный институт народного хозяйства имени В. В. Куйбышева,Belarus,,53.87805556,27.60722222,
Belarusian State Medical University,Беларускі дзяржаўны медыцынскі універсітэт; Мінскі медыцынскі інстытут; Мінскі медыцынскі ўніверсітэт; Белорусский медицинский институт; பெலாருசியன் அரசு மருத்துவ பல்கலைக்கழகம்,Belarus,,53.86138889,27.48527778,
Belarusian State Technological University,БДТУ; Беларускі лесатэхнічны інстытут; Белорусский технологический институт,Belarus,,53.89166667,27.56,
Belarusian State University,BGU; БДУ; Беларускі дзяржаўны універсітэт; Белдзяржуніверсітэт; БДУ; Belorusskij Gosudarstvennyj Universitet; Université d'État de Biélorussie; Белгосуниверситет; Белорусский университет; БДУ,Belarus,Minsk,53.893889,27.546944,
Belarusian State University Faculty of Economics,,Belarus,,53.8989,27.5596,
Belarusian State University of Culture and Arts,Беларускі дзяржаўны ўніверсітэт культуры; Беларускі ўніверсітэт культуры; БДУКМ; Беларускі дзяржаўны ўнівэрсытэт культуры; Беларускі ўнівэрсытэт культуры; Беларускі ўнівэрсытэт культуры і мастацтва; Менскі інстытут культуры; БГУКИ; Белорусский университет культуры,Belarus,,53.88694444,27.54166667,
Belarusian State University of Informatics and Radioelectronics,БДУІіР; БДУІР; Беларускі дзяржаўны ўнівэрсытэт інфарматыкі й радыёэлектронікі; Менскі радыётэхнічны інстытут; Universidad Estatal Belarusa de Informatica y Radioelectronica; Universidad Estatal Belarusa de Informatica y Radioelectrónica; Universidad Estatal Belarusa de Informática y Radioelectronica; Université d'Etat de Bélarus diInformatique et de radioélectronique; 벨라루씨국가정보 및 무선전자종합대학; BSUIR; БГУИР; Белгосуниверситет информатики и радиоэлектроники; Минский радиотехнический институт; МРТИ; Belarus devlet radyoelektronik ve informatik üniversitesi; Belarus Devlet Radyoelektronik ve Informatik Üniversitesi,Belarus,Minsk,53.917777777778,27.594722222222,
Belarusian State University of Physical Training,Беларускі дзяржаўны універсітэт фізічнай культуры; Беларускі дзяржаўны ўніверсітэт фізічнай культуры і спорту; БГУФК; Белорусский государственный ордена Трудового Красного Знамени институт физической культуры,,,53.93555556,27.48972222,
Belarusian State University of Transport,Беларускі інстытут інжынераў чыгуначнага транспарту; БелДУТ; БелІІЧТ; БелГУТ; БелИИЖТ; БИИЖТ,Belarus,,52.43222222,31.00333333,
Belgorod Law Institute,,Russia,,50.57368001,36.56465101,
Belgorod State Institute of Arts and Culture,БГИИК; БГИКИ; Белгородский государственный институт культуры и искусств; Білгородський державний інститут культури і мистецтв,,,50.57472222,36.57916667,
Belgorod State Technological University,БГТАСМ; БГТУ им. В. Г. Шухова; Белгородская государственная технологическая академия; Белгородская государственная технологическая академия строительных материалов; Белгородский государственный технологический университет; Белгородский государственный технологический университет им. В. Г. Шухова,,,50.581245,36.596273,
Belgorod State University,БелГУ; Бєлгородський педагогічний інститут,Russia,Belgorod,50.5941,36.5769,
Bellarmine University,Bellamine University,United States of America,Louisville,38.2198,-85.703,
Bellevue University,,United States of America,Nebraska,41.1506,-95.9192,
Belmont University,Belmont University,United States of America,Nashville,36.13553,-86.79661,
Belorussian-Russian University,Магілёўскі машынабудаўнічы інстытут; БРУ; Магілёўскі машынабудаўнічы інстытут,Russia,,53.907753,30.34395,
Bemidji State University,BSU,United States of America,Bemidji,47.4818,-94.8756,
Ben-Gurion University of the Negev,"جامعة بن جوريون; جامعة بن گوريون; جامعه بن غوريون; Ben Gurionova univerzita; Ben Gurion University; Ben-Gurion-Universität; Universitato Ben Gurion de la Negev; Universitato Ben-Gurion de la Negevo; Universidad Ben Gurion; Universidad Ben Gurión; Universidad Ben Gurión del Negev; Universidad Ben Gurion del Neguev; Universidad Ben Gurion del Néguev; Universidad Ben Gurión del Neguev; Universidad Ben Gurión del Néguev; Universidad Ben-Gurion; Universidad Ben-Gurión; Universidad Ben-Gurion del Negev; Universidad Ben-Gurión del Negev; Universidad Ben-Gurion del Neguev; Universidad Ben-Gurion del Néguev; Universidad Ben-Gurión del Neguev; Ben Guriyyoni Negevi ülikool; Ben-Gurioni Negevi Ülikool; Ben-Gurioni ülikool; Ben-Guriyyoni Negevi ülikool; Negevi ülikool; دانشگاه بن گوریان; دانشگاه بنگوریون; دانشگاه داوید بن گوریون; Université Ben Gourion; Universite Ben-Gourion du Neguev; Université ben-gourion du néguev; אוניברסיטת באר שבע; אוניברסיטת בן גוריון; אוניברסיטת בן גוריון בנגב; אוניברסיטת בן-גוריון; אוניברסיטת הנגב; 벤-구리온 대학; 벤구리온 대학; Universita Ben-Gurion del Negev; Ben Gurion Universiteit; Ben-Gurion-universiteit; Университет Бен-Гуриона; Университет им. Бен Гуриона в Негеве в Беер-Шеве, Израиль; Университет им. Бен-Гуриона; Ben Gurionova univerzita; Ben Gurionova univerzita v Negeve; Неґевський університет Бен-Гуріона; Університет імені Бен-Гуріона; ベン＝グリオン大学; ベングリオン大学ネゲヴ校",Israel,Beersheba,31.262191666667,34.801511111111,
Benedictine College,,United States of America,Kansas,39.5739,-95.1146,
Benedictine University,Benedictine-universitetet,United States of America,Illinois,41.7772,-88.0958,
Benemérita Universidad Autónoma de Puebla,Benemerita Universidad Autonoma de Puebla; Universidad Autónoma de Puebla; Benemerita universidad autonoma de puebla; Benemerita Universidad Autónoma de Puebla; Benemérita Universidad Autonoma de Puebla; BUAP; Universidad Autonoma de Puebla; Universidad Autónoma de Puebla; Benemerita Universidad Autonoma de Puebla; Benemérita Universidad Autónoma de Puebla; Universiteit van Puebla,Mexico,,19.000742,-98.200512,
Benemérita Universidad de Guanajuato,Colegio del Estado de Guanajuato; Universidad de Guanajuato,Mexico,,21.017273,-101.253098,
Beni-Suef University,,Egypt,Beni Suef,29.08138889,31.10055556,
Benito Juárez Autonomous University of Oaxaca,,Mexico,,17.04805556,-96.71222222,
Benjamin N. Cardozo School of Law,卡多索法學院; ベンジャミン・カードーゾ法科大学院,United States of America,New York,40.7349,-73.9943,
Bennington College,Bennington; 貝林頓學院; ベニントン・カレッジ,United States of America,Bennington,42.9248,-73.2367,
Benson Idahosa University,,,,6.33333333,5.63333333,
Bentley University,Bentley,United States of America,Massachusetts,42.3876,-71.2206,
Benue State University,,,Makurdi,7.726538,8.556275,
Beppu University,別府女子大学; 벳푸대학,Japan,,33.312222,131.490556,
Berhampur University,BU; Berhampur University,India,Odisha,19.298056,84.877778,
Berklee College of Music,Berklee College of Music,United States of America,Massachusetts,42.346388888889,-71.086944444444,0000 0001 2224 870X
Bern University of Applied Sciences,,Switzerland,,47.1583,7.27722,
Besat Institute of Higher Education of Kerman,بعثت کرمان; مؤسسه آموزش عالی بعثت; مؤسسهٔ آموزش عالی بعثت کرمان; مؤسسه اموزش عالی بعثت کرمان; موسسه آموزش عالی بعثت کرمان,Iran,,30.241853,57.064619,
Bethany College of Missions,,United States of America,,44.7958,-93.3708,
Bethany University,,United States of America,California,37.075,-121.994,
Bethel University,貝塞爾學院,United States of America,Arden Hills,45.057027777778,-93.161472222222,
Bethlehem University,جامعه بيت لحم; Katholische Universität Bethlehem,State of Palestine,Bethlehem,31.71054,35.20147,
Bethune-Cookman University,Bethune; BCC; B-CC; B-CU; Bethune-Cookman; Bethune-Cookman College; Cookman; Bethune-Cookman University,United States of America,Florida,29.2103,-81.0306,
Beykent University,Beykent üniversitesi,Turkey,Istanbul,40.98611111,29.05361111,
Bhagwant University,,,,26.5373916,74.6585627,
Bharath University,,India,Chennai,12.907748,80.142163,
Bharathiar University,BU; Bharathiar University; ഭാരതയാർ സർവകലാശാല,India,Coimbatore,11.039769444444,76.878811111111,
Bharathidasan University,BDU,India,Tamil Nadu,10.67472222,78.74416667,
Bhavnagar University,BU; Maharaja Krishnakumar Sinhji Bhavnagar University,India,Gujarat,21.75805556,72.14138889,
Bialystok University of Technology,,Poland,,53.116666666667,23.146111111111,
Bielefeld University,Uni Bielefeld,Germany,Bielefeld,52.0378,8.49306,
Bifröst University,Universite de Bifrost; Viðskiptaháskólinn á Bifröst; Viðskiptaháskólinn Bifröst; Università di Bifrost; Bifröst Univeristy,Iceland,,64.7668,-21.5519,
Bihar Agricultural University,,,,25.2386,87.0509,
Bikaner Technical University,,India,,28.060165,73.294365,
Bilkent University,Bilkent Üniversitesi; Bilkent üniversitesi; Bilkent Üniversitesi; Bilkent University; Bilkent Uniwéstéti,Turkey,,39.868,32.7487,
Binghamton University,Harpur College; Binghamton University; Binghamton University (Nueva York); دانشگاه ایالتی نیویورک در بینگ همتون; دانشگاه ایالتی نیویورک در بینگهمتون; Binghamton University; ビンガムトン大学; Universidade Binghamton; Binghamton University; State University of New York at Binghamton; Университет штата Нью-Йорк в Бингемтоне; Харпур-колледж; Binghamton üniversitesi; Binghamton University; 紐約州立大學賓罕頓分校,United States of America,"Vestal, New York",42.08925,-75.96989,
Bingöl University,Bingöl Üniversitesi; Uni Bingöl; Bingöl üniversitesi,Turkey,Bingöl,38.8852,40.5057,
Binus University,Bina Nusantara University; Binus University; Đại học Bina Nusantara,Indonesia,,-6.2289,106.797,
Biola University,Biola University,United States of America,California,33.9056,-118.018,
"Birkbeck, University of London","ロンドン大学; Μπίρκμπεκ, Πανεπιστήμιο του Λονδίνου; Birkbeck College; バークベック校; バーベック・カレッジ; ロンドン大学バークベック校",United Kingdom,,51.521728,-0.129338,
Birla Institute of Technology and Science,बिर्ला इन्स्टिट्यूट ऑफ टेक्नॉलजी अँड सायन्स; Birla tekniska och vetenskapliga högskola; बिट्स पिलानी; बिड़ला प्रौद्योगिकी एवं विज्ञान संस्थान; बिरला प्रॉद्योगिकी एवं विज्ञान संस्थान पिलानी; बिरला प्रोद्योगिकी एवं विग्यान संस्थान; बिरला प्रोद्योगिकी एवं विज्ञान संस्थान; बिरला प्रौद्योगिकी एवं विज्ञान संस्थान पिलानी; Birla Institute of Technology and Science Pilani; BITS; ബിറ്റ്സ്; बिट्स पिलानी,India,Pilani,28.36387778,75.58701667,
"Birla Institute of Technology, Mesra",BIT,India,Mesra,23.41222222,85.44,
Birmingham City University,バーミンガム・シティ大学; バーミンガム市立大学,United Kingdom,Birmingham,52.517222222222,-1.8980555555556,
Birmingham School of Law,ブリガム・ロースクール,United States of America,Alabama,33.516,-86.8064,
Birsa Agricultural University,BAU,India,Jharkhand,23.4456,85.3175,
Birzeit University,,State of Palestine,Birzeit,31.95861,35.18083,
Bishop Stuart University,,Uganda,,-0.6022,30.6959,
Bishop's University,Bishop's University; Collège Bishop; Université Bishop; Universite Bishop's; Université Bishops,Canada,Quebec,45.366711111111,-71.845463888889,
Bismarck State College,BSC,United States of America,,46.821944444444,-100.81777777778,
Bitlis Eren University,,Turkey,Bitlis,38.4371,42.1387,
Biwako Seikei Sport College,びわこ成蹊スポーツ大学の人物一覧,Japan,,35.22816667,135.94738889,
Biyani Institute of Science and Management for Girls,,India,Jaipur,26.9567,75.779,
Biyani International Institute of Engineering & Technology,,,Jaipur,26.9844898,75.5795053,
Black Hills State University,BHSU,United States of America,Spearfish,44.4971,-103.873,0000 0000 9695 4052
Blaise Pascal University,,France,Clermont-Ferrand,45.76173,3.113075,
Bloomsburg University of Pennsylvania,Bloomsburg University,United States of America,Pennsylvania,41.008,-76.448,
Bluffton University,,United States of America,Ohio,40.896,-83.898,
Bocconi University,SDA Bocconi; Universita Bocconi; Università Bocconi; Universität Luigi Bocconi; Bocconi; Unibocconi; Università Bocconi; Università Luigi Bocconi; Universite Bocconi; Université Luigi Bocconi de Milan; Université Luigi-Bocconi; Université Luigi-Bocconi de Milan; Bocconi; Unibocconi; Università Bocconi; Università Luigi Bocconi; Bocconi; Università Commerciale Luigi Bocconi; Università comersal Luigi Bocconi; Bocconi; Bocconi; Bocconi University; Бокконі; Університет Бокконі; ボッコーニ大学,Italy,Milan,45.450277777778,9.1897222222222,
Bogomolets National Medical University,Kansallinen lääketieteellinen yliopisto (Kiova); Kansallinen lääketieteellinen yliopisto O. O. Bohomoletsin mukaan; Kiovan lääketieteellinen instituutti; Kiovan lääketieteellinen valtionyliopisto; Kiovan lääketieteellinen yliopisto; Państwowy Medyczny Uniwersytet; Киевский государственный медицинский университет; Киевский институт здравоохранения; Киевский медицинский институт; Киевский медицинский институт им. А.А.Богомольца; Киевский медицинский университет; Национальный медицинский университет им. А. А. Богомольца; Национальный медицинский университет имени Александра Богомольца; Национальный медицинский университет имени Богомольца; Национальный медицинский университет имени О. О. Богомольца; Национальный медицинский университет имени О.О. Богомольца; Национальный медицинский университет Украины; Київський медичний інститут; Київський медичний інститут імені академіка О. О. Богомольця; Київський медичний інститут імені Олександра Богомольця; Київський медичний університет; Національний медичний університет імені акад. Олександра Богомольця; Національний медичний університет імені О. Богомольця; Національний медичний університет імені О. О. Богомольця; Національний медичний університет імені О.О. Богомольця,Ukraine,,50.4427,30.5153,
Bohol Northern Star Colleges,,Philippines,,10.0497,124.466,
Boise State University,BSU; Boise State; Boise State; Boise State University; ボイシー州立大学; ボイジー州立大学; Колледж штата Айдахо в Бойсе; Младший колледж Бойсе; Университет Бойсе; 博伊西州立大學; 樹城州立大學; 博伊斯州立大學,United States of America,Idaho,43.604,-116.204,
Bolivarian University of Venezuela,Bolivarianische Universität Venezuelas,Venezuela,,10.4875,-66.88583333,
Bond University,Bond universitetet; Bond-universitetet,Australia,Queensland,-28.074,153.416,
Bonn-Rhein-Sieg University of Applied Sciences (BRSU),Fachhochschule Bonn-Rhein-Sieg; Fachhochschule Rhein-Sieg; Fachhochschule Sankt Augustin; FH Bonn; FH Bonn-Rhein-Sieg; FH Rhein-Sieg; Froscon; FrOSCon; H BRS; 波恩－莱茵－斯格技术大学,Germany,North Rhine-Westphalia,50.7806,7.18194,
Booth School of Business,Chicago Booth; University of Chicago Booth School of Business; University of Chicago Booth School of Business,United States of America,London,41.7891,-87.5957,
Bordeaux Montaigne University,Michel de Montaigne University; University of Bordeaux 3; Bordeaux-III; université Bordeaux III; université Bordeaux-Montaigne; université de Gascogne; université Michel de Montaigne-Bordeaux III; Université Bordeaux-Montaigne; Université Bordeaux III,France,Pessac,44.79529,-0.616361,
Bordeaux Segalen University,Universität Bordeaux 2; Universitato Bordozo 2 - Victor Segalen; Universitato Victor Segalen; Bordeaux-II; université Bordeaux Segalen; université Victor-Segalen Bordeaux 2; Université Victor Segalen; 波爾多大學醫院,France,Bordeaux,44.825205,-0.60579,
