source,name,alias,isni,type,lat,lon,country,alpha2
http://www.wikidata.org/entity/Q2053266,"1 Decembrie 1918 University, Alba Iulia",Universite 1 Decembrie 1918,,university,46.069,23.5724,Romania,RO
http://www.wikidata.org/entity/Q2638914,A.S. Pushkin Brest State University,Брестський державний університет; Берестейський державний університет ім. О.С. Пушкіна; Берестейський державний університет; Пинское педагогическое училище им. А. С. Пушкина; Брестский государственный университет им. А.С. Пушкина; Брестский государственный университет им. А. С. Пушкина; Брестский государственный университет; Uniwersytet im. Puszkina w Brześciu nad Bugiem; Берасьцейскі ўнівэрсытэт; Берасьцейскі пэдагагічны інстытут; Берасьцейскі дзяржаўны ўнівэрсытэт; Брэсцкі педагагічны інстытут; Брэсцкі дзяржаўны ўніверсітэт; БрДУ імя А. С. Пушкіна,,university,52.137242,23.67234,Belarus,BY
http://www.wikidata.org/entity/Q4649771,AAB University,,,university,42.6394,21.1103,Kosovo,XK
http://www.wikidata.org/entity/Q414245,AGH University of Science and Technology,AGH科技大學; Гірничо-металургійна академія ім. Станіслава Сташиця; Akademia Górniczo-Hutnicza w Krakowie; Akademia Górniczo-Hutnicza; Akademia Górniczo-Hutnicza im. Stanisława Staszica; Université des sciences et technologies de Cracovie; AGH UST; AGH Université des Sciences et Technologies; AGH université des sciences et technologies; Académie des mines et de la métallurgie de Cracovie; AGH UST; Academy of Mining and Metallurgy in Cracow; Berg- und Hüttenakademie Krakau; Akademie für Bergbau und Hüttenwesen Krakau; Akademia Górniczo-Hutnicza im. Stanisława Staszica w Krakowie; AGH WTU; AGH; AGH; AGH; AGH; AGH; AGH; AGH; AGH,0000 0000 9174 1488,university,50.064527777778,19.92375,Poland,PL
http://www.wikidata.org/entity/Q4652198,AKS University,,,university,28.35,77.1,India,IN
http://www.wikidata.org/entity/Q3551579,AMA Computer University,Pamantasang Pangkomputadora ng AMA; AMA Computer University,,university,14.66485,121.01323056,Philippines,PH
http://www.wikidata.org/entity/Q4652536,AMA International University,جامعه أما الدوليه البحرين,,university,26.1859,50.518,Bahrain,BH
http://www.wikidata.org/entity/Q4653315,APIIT,,,university,3.04833333,101.6925,Malaysia,MY
http://www.wikidata.org/entity/Q4654070,ASA University Bangladesh,ASA University; আশা ইউনিভার্সিটি,,university,23.7738,90.3663,Bangladesh,BD
http://www.wikidata.org/entity/Q4661370,Aalborg Business College,,,university,57.0534,9.9098,Denmark,DK
http://www.wikidata.org/entity/Q601956,Aalborg University,,,university,57.015,9.985,Denmark,DK
http://www.wikidata.org/entity/Q12300291,Aalborg University Copenhagen,,,university,55.7309,12.397,Denmark,DK
http://www.wikidata.org/entity/Q12300290,Aalborg University – Esbjerg,,,university,55.4916,8.44733,Denmark,DK
http://www.wikidata.org/entity/Q300980,Aalto University,"阿爾託大學; Aalto University; Aaltouniversitetet; Aalto-högskolan; Аалто университет; Aalto-yliopisto; ヘルシンキ経済大学; ヘルシンキ工科大学; アアルト大学; Innovaatioyliopistohanke; Innovaatioyliopisto; Aalto-korkeakoulu; A""; A?; A!; Helsingin kauppakorkeakoulu; Aalto-yliopiston ylioppilaskunta; Aalto-yliopisto; Aalto-universitetet; Aalto-korkeakoulu; Aalto-högskolan; Aalto yliopisto; Aalto university; University of Art and Design Helsinki; UIAH; TKK Helsinki; TKK Espoo; Technische Universität Helsinki; TAIK; Taideteollinen korkeakoulu; Hochschule für Kunst und Design Helsinki; Helsinki University of Technology; Aalto-universitetet; TKK; AYY",0000 0001 0838 9418,university,60.186111,24.828611,Finland,FI
http://www.wikidata.org/entity/Q2591673,"Aalto University School of Arts, Design and Architecture","ヘルシンキ工芸大学; Konstindutriella läroverket; Konstindustriella läroverket; Konstindustriella högskolan; Konstflitskolan; Centralskolan för konstflit; Aalto-universitetets konstindustriella högskola; ヘルシンキ芸術大学; ヘルシンキ美術大学; École supérieure d'arts, de design et d'architecture d'Helsinki; Veistokoulu; UIAH; TAIK; Taideteollisuusopisto; Taideteollisuuskoulu; Taideteollisuuskeskuskoulu; Taideteollisuuden keskuskoulu; Taideteollinen oppilaitos; Taideteollinen Korkeakoulu; Taideteollinen keskuskoulu; Media lab; Helsingin taideteollinen koulu; Aalto-yliopiston taideteollinen korkeakoulu; Universidad de Arte y Diseno Helsinki; Aalto ARTS",,university,60.209444444444,24.976944444444,Finland,FI
http://www.wikidata.org/entity/Q924265,Aarhus University,Aarhus Universitet; University of Aarhus; Aarhus Universitet; Universitetet i Århus; Århus universitet; Universidade de Århus; Uniwersytet w Aarhus; Aarhus Universitet; Universiteit van Århus; Universiteit van Arhus; Aarhus Universitet; Universitetet i Århus; Universitetet i Aarhus; Århus universitet; Università di Århus; Aarhus University; Université d’Aarhus; Université d'Århus; Universite d'Aarhus; Århusin yliopisto; Århusi ülikool; Aarhus University; Universidad de Århus; Universidad de Arhus; Aarhus Universitet; Universität Århus; Aarhus Universitet; Universitetsundervisningen i Jylland; Det jydske Universitet; Århus Universitet,,university,56.166666666667,10.2,Denmark,DK
http://www.wikidata.org/entity/Q12334744,"Aarhus University, School of Business and Social Sciences",,,university,56.16166667,10.18224167,Denmark,DK
http://www.wikidata.org/entity/Q305507,Abant Izzet Baysal University,"Abant izzet baysal üniversitesi; İzzet Baysal üniversitesi. Abant, Turquie; دانشگاه ابانت عزت بایسال; Abant İzzet Baysal University; Abant İzzet Baysal Üniversitesi; Abant Izzet Baysal Universitesi",,university,40.7142,31.5128,Turkey,TR
http://www.wikidata.org/entity/Q3326342,Abat Oliba CEU University,Universitat Abat Oliba CEU; Universidad Abat Oliba CEU; Universitat Abat Oliba CEU,,university,41.41,2.12638889,Spain,ES
http://www.wikidata.org/entity/Q3551367,Abdelmalek Essaâdi University,Université Abdelmalek Essaâdi; Faculté des sciences et Techniques de Tanger; جامعه عبد المالك السعدي; جامعة عبد الملك السعدي; جامعة تطوان,,university,35.562,-5.363,Morocco,MA
http://www.wikidata.org/entity/Q308329,Abdou Moumouni University,Université de Niamey; Université Abdou Moumouni; University of Niamey; Abdou Moumouni University of Niamey; Abdou Moumouni Dioffo University; Universität Niamey,,university,13.50136111,2.09852778,Niger,NE
http://www.wikidata.org/entity/Q319761,Aberystwyth University,"アベリストウィス大学; アベリスツイス大学; 阿伯里斯特威斯大学; 威爾斯暨亞伯裡斯威斯大學; 威爾斯大學，亞伯里斯威斯; 威尔士暨亚伯里斯威斯大学; Universiteit van Aberystwyth; Aberystwyth University; University of Wales, Aberystwyth; University of Wales, Aberystwyth; Université du Pays de Galles à Aberystwyth; Université du pays de galles à aberystwyth; Universite du Pays de Galles a Aberystwyth; Université d'Aberystwyth; Prifysgol Aberystwyth; University College of Wales, Aberystwyth; University of Wales, Aberystwyth; Universität Aberystwyth; Prifysgol Aberystwyth; Prifysgol Cymru, Aberystwyth; Prifysgol Cymru Aberystwyth; Coleg y Brifysgol, Aberystwyth; Coleg y Brifysgol Aberystwyth; Coleg Prifysgol Cymru, Aberystwyth; Coleg Prifysgol Cymru Aberystwyth; Coleg Prifysgol Aberystwyth; Universita v Aberystwythu; Aberystwyth University",,university,52.41806,-4.06576,United Kingdom,GB
http://www.wikidata.org/entity/Q3509319,Abia State University,Abia State University; Abia State University,,university,5.8281748,7.3960036,Nigeria,NG
http://www.wikidata.org/entity/Q4669049,Abraham Lincoln University,,,university,34.0614,-118.301,United States,US
http://www.wikidata.org/entity/Q323347,Abraham-Geiger-Kolleg,Abraham Geiger Kolleg,,university,52.4011,13.0119,Germany,DE
http://www.wikidata.org/entity/Q4670504,Abubakar Tafawa Balewa University,Abubakar Tafawa Balewa University,,university,10.3297704,9.8453553,Nigeria,NG
http://www.wikidata.org/entity/Q1148613,Academy of Arts in Tirana,Kunstakademie Tirana; Akademia e Arteve,,university,41.31789111,19.82020497,Albania,AL
http://www.wikidata.org/entity/Q2374234,Academy of Christian Humanism University,,,university,-33.4375,-70.6275,Chile,CL
http://www.wikidata.org/entity/Q1303297,Academy of Drama and Film in Budapest,Színház- és Filmművészeti Főiskola; SZFE,,university,47.49527778,19.06611111,Hungary,HU
http://www.wikidata.org/entity/Q4671448,Academy of Economic Studies of Moldova,Academia de Studii Economice din Moldova; Academia de Studii Economice din Chișinău; Academia de Studii Economice Chisinau,,university,47.031013,28.838392,Moldova,MD
http://www.wikidata.org/entity/Q4059233,Academy of Fine Arts,"Académie des beaux-arts de Gdansk; Akademie der Bildenden Künste, Danzig",,university,54.351,18.6484,Poland,PL
http://www.wikidata.org/entity/Q2254584,Academy of Fine Arts of Helsinki,"Taideyliopiston Kuvataideakatemia; Suomen Taideyhdistyksen piirustuskoulu; Suomen Taideakatemian koulu; Finska konstföreningens ritskola; Finlands konstakademis skola; Konstuniversitetets Bildkonstakademi; Finska konstföreningens ritskola; Finlands konstakademis skola; Bildkonstakademi; Taideyliopiston Kuvataideakatemia; Suomen Taideyhdistyksen piirustuskoulu; Suomen Taideakatemian koulu; Konstuniversitetets Bildkonstakademi; Finska konstföreningens ritskola; Finlands konstakademis skola; Academy of Fine Arts, University of the Arts Helsinki; Bildkonstakademin; Académie des Beaux-Arts d’Helsinki; Taideakatemian koulu; Suomen Taideyhdistyksen piirustuskoulu; Suomen Taideakatemian koulu; Kuvataideakatemia; Academia de Bellas Artes Finlandia; Kuvataideakatemia; Bildkonstakademin",,university,60.1825,24.96027778,Finland,FI
http://www.wikidata.org/entity/Q1978570,Academy of Foreign Intelligence,АЗР; Краснознамённый институт КГБ СССР; Краснознаменный институт КГБ СССР; Краснознамённый институт КГБ; Краснознаменный институт КГБ; Краснознамённый институт им. Ю. В. Андропова; Краснознаменный институт им. Ю. В. Андропова; Краснознаменный имени Ю.В. Андропова институт КГБ СССР; Краснознамённый имени Ю. В. Андропова институт КГБ СССР; КИ КГБ СССР; Академия внешней разведки СВР,,university,55.909416666667,37.652777777778,Russia,RU
http://www.wikidata.org/entity/Q414464,Academy of Gondishapur,Gundeşapur akademisi; Universitetet i Gundishapur; Academie van Gundishapur; Académie De Gundishapur; Académie de gundishapur; Academie de Gundishapur; Gundishapur; گندیشاپور; فرهنگستان گندیشاپور; دانشگاه گندی‌شاپور; دانشگاه گندی شاپور; دانشگاه جندی‌شاپور; دانشگاه جندی شاپور اهواز; دانشگاه جندی شاپور; اکادمی جندی شاپور; آکادمی جندی شاپور; مدرسة جنديشابور; مدرسة جنديسابور الطبية; جندی‌شاپور,,university,32.283333,48.516667,Iran,IR
http://www.wikidata.org/entity/Q4059259,Academy of Land Forces,Львівський військовий інститут; Львівське вище військово-політичне училище; Львовский военный ордена Красной Звезды институт имени гетмана Петра Сагайдачного; Львовский военный институт при Национальном университете «Львовская политехника»; Львовский военный институт; Военный институт при Национальном университете «Львовская политехника»; Академия Сухопутных войск имени Гетмана Петра Сагайдачного; Академия сухопутных войск имени Гетмана Петра Сагайдачного,,university,49.82573284,24.01834501,Ukraine,UA
http://www.wikidata.org/entity/Q4671509,Academy of Music and Music Communication,VMK,,university,55.4705,8.4507,Denmark,DK
http://www.wikidata.org/entity/Q414221,Academy of Performing Arts,Akademie múzických umění v Praze; Празька академія музичних мистецтв; Akadémia múzických umení v Prahe; Пражская музыкальная академия; Пражская академия музыки; Пражская Академия музыкального искусства; Академия музыкального искусства (Прага); Akademie múzických umění v Praze; Akademie van de muzikale Kunsten; Akademie múzických umění v Praze; Akademie múzických umení v Praze; Akademie muzickych umeni v Praze; Académie Tchèque Des Arts Musicaux; Academie tcheque des arts musicaux; Academy of Performing Arts in Prague; Prager Musikakademie; Akademie múzických umění; Akademie muzických umění,,university,50.0875,14.40194444,Czechia,CZ
http://www.wikidata.org/entity/Q4671520,Academy of Physical and Sports Education Vojo Kushi,,,university,41.33055556,19.80194444,Albania,AL
http://www.wikidata.org/entity/Q4059211,Academy of the Ministry of Internal Affairs,Минская высшая школа МВД СССР; Академия Министерства внутренних дел Республики Беларусь; Академия министерства внутренних дел Белоруссии; Акадэмія МУС Рэспублікі Беларусь; Акадэмія МУС РБ,,university,53.91250001,27.57694445,Belarus,BY
http://www.wikidata.org/entity/Q1168859,Accademia Albertina,Regia Accademia Albertina; Accademia Albertina di Belle Arti; Albertine Academy of Fine Arts; Accademia Albertina delle Belle Arti,,university,45.0675,7.68944444,Italy,IT
http://www.wikidata.org/entity/Q2822439,Accademia Nazionale di Arte Drammatica Silvio D'Amico,Accademia Nazionale d'Arte Drammatica Silvio D'Amico; Accademia Nazionale d'Arte Drammatica; Accademia d'arte drammatica; Académie Nationale d'Art Dramatique,,university,41.92000278,12.49342222,Italy,IT
http://www.wikidata.org/entity/Q181410,Accademia nazionale di Santa Cecilia,,,university,41.929,12.4745,Italy,IT
http://www.wikidata.org/entity/Q4673537,Acharya N. G. Ranga Agricultural University,ఆంధ్రప్రదేశ్ వ్యవసాయ విశ్వవిద్యాలయం; ఆచార్య N.G.రంగా వ్యవసాయ విశ్వవిద్యాలయము; ఆచార్య N.G.రంగా వ్యవసాయ విశ్వవిద్యాలయం; అచార్య N.G. రంగా వ్యవసాయ విశ్వవిద్యాలయం; Professor Jayashankar Telangana State Agricultural University; PJTSAU,,university,17.32151111,78.40981111,India,IN
http://www.wikidata.org/entity/Q4673539,Acharya Nagarjuna University,నాగార్జునా యూనివర్సిటీ; నాగార్జున విశ్వవిద్యాలయము; నాగార్జున విశ్వవిద్యాలయం; ఆచార్య నాగార్జున విశ్వవిద్యాలయము,,university,16.375322222222,80.528583333333,India,IN
http://www.wikidata.org/entity/Q4678047,Acıbadem University,Acıbadem üniversitesi,,university,40.92527778,29.15444444,Turkey,TR
http://www.wikidata.org/entity/Q348402,Adam Mickiewicz University in Poznań,"Університе́т імені Ада́ма Міцке́вича у Познані; Університет імені Адама Міцкевича; Познанський університет; Университет имени Адама Мицкевича; Университет Адама Мицкевича; Uniwersytet im. Adama Mickiewicza w Poznaniu; Wszechnica Piastowska; Uniwersytet Poznański; Uniwersytet imienia Adama Mickiewicza; Uniwersytet im. Adama Mickiewicza; Uniwersytet Adama Mickiewicza w Poznaniu; Uniwersytet Adama Mickiewicza; UAM; Universiteit van Poznań; Universiteit van Poznan; Adam Mickiewicz Universiteit Poznań; Adam Mickiewicz Universiteit Poznan; Uniwersytet im. Adama Mickiewicza; Universitetet i Poznań; UAM; ポズナン大学; ポズナニ大学; ピャスト大学; アダム・ミツキェヴィッチ大学; université de Poznań; université de Poznan; université Adam Mickiewicz de Poznań; université Adam Mickiewicz; UAM; Universidad de Poznan, Adam Mickiewicz; Universidad de Poznan Adam Mickiewicz; Universidad Adam Mickiewicz de Poznan; Uniwersytet Adama Mickiewicza w Poznaniu; Uniwersytet Adama Mickiewicza; Universitato de Poznano; Universitato de Poznań; Universitato de Adam Mickiewicz; Universitato Adam Mickiewicz en Poznań; Universitato Adam Mickiewicz en Poznan; Universitato Adam Mickiewicz; Adam Mickiewicz University; (Adam Mickiewicz Universitato); Uniwersytet im. Adama Mickiewicza; Universität Poznań; Universität Poznan; Universität Posen; Piastenuniversität; Piasten-Universität; Adam-Mickiewicz-Universität",0000 0001 2097 3545,university,52.407777777778,16.915555555556,Poland,PL
http://www.wikidata.org/entity/Q351971,Adams State University,,,university,37.471231,-105.879536,United States,US
http://www.wikidata.org/entity/Q1238770,Addis Ababa University,Addis Ababa University; Universitas Neanthopolis; Université d’Addis Abeba; Université d'Addis Abeba; Universidad de Adis Abeba; Addis-Abeba-Universität; አዲስ አበባ ዩኒቨርሲቲ; AAU,0000 0001 2169 3326,university,9.0466666666667,38.759166666667,Ethiopia,ET
http://www.wikidata.org/entity/Q4681695,Adelaide College of the Arts,,,university,-34.92456,138.59208,Australia,AU
http://www.wikidata.org/entity/Q4682076,Adelphi University,アデルフィ大学; Adelphi University; دانشگاه ادلفی,,university,40.7202,-73.6517,United States,US
http://www.wikidata.org/entity/Q15281629,Adiban Institute of Higher Education,,,university,35.7686,51.2792,Iran,IR
http://www.wikidata.org/entity/Q4682773,Adikavi Nannaya University,,,university,17.01706667,81.78274167,India,IN
http://www.wikidata.org/entity/Q348791,Admiral Makarov National University of Shipbuilding,Український державний морський технічний університет імені адмірала Макарова; МКІ; Миколаївський кораблебудівний інститут; Миколаївський кораблебудівельний інститут; Украинский государственный морской технический университет им. Адмирала Макарова; Украинский государственный морской технический университет; НУК им. Адмирала Макарова; Николаевский кораблестроительный институт имени адмирала Макарова; Николаевский кораблестроительный институт,,university,46.987908,32.002316,Ukraine,UA
http://www.wikidata.org/entity/Q359735,Adnan Menderes University,Adü; Adnan menderes üniversitesi; ADU; Adnan Menderes Üniversitesi,,university,37.85472222,27.85472222,Turkey,TR
http://www.wikidata.org/entity/Q611995,Adolfo Ibáñez University,,,university,-33.486,-70.518,Chile,CL
http://www.wikidata.org/entity/Q2983842,Advanced Institute of Industrial Technology,,,university,35.607002,139.749107,Japan,JP
http://www.wikidata.org/entity/Q3605862,Advanced Learning and Research Institute,AlaRI,,university,46.01072,8.9585,Switzerland,CH
http://www.wikidata.org/entity/Q380454,Adıyaman University,Adıyaman üniversitesi; ADYÜ; Adıyaman Üniversitesi,,university,37.74388889,38.23166667,Turkey,TR
http://www.wikidata.org/entity/Q4688352,Aeronautical College of Bangladesh,,,university,23.874898,90.387425,Bangladesh,BD
http://www.wikidata.org/entity/Q4689062,Afghan Defense University,,,university,34.5542,69.0315,Afghanistan,AF
http://www.wikidata.org/entity/Q22979334,Afghanistan Technical Vocational Institute,د افغانستان دتخنیکي مسلکي زده کړو انسټیټوټ; انستیوت تعلیمات تخنیکی مسلکی افغانستان; ATVI-ATVI Afghanistan-Afghanistan ATVI-Afghanistan Technical Institute-Afghanistan Technical Vocational Institute-Kabul Institute,,university,34.514386305556,69.139431194444,Afghanistan,AF
http://www.wikidata.org/entity/Q383939,Africa University,Africa University,,university,-18.8975,32.6011,Zimbabwe,ZW
http://www.wikidata.org/entity/Q4689708,African Bible College,,,university,0.2404,32.5646,Uganda,UG
http://www.wikidata.org/entity/Q4689862,African Methodist Episcopal University,,,university,6.31037,-10.80101,Liberia,LR
http://www.wikidata.org/entity/Q17510024,African Rural University,,,university,0.94265,30.8171,Uganda,UG
http://www.wikidata.org/entity/Q4690863,Afyon Kocatepe University,Kocatepe Üniversitesi; Afyonkarahisar Kocatepe Üniversitesi; Afyon kocatepe üniversitesi; AKU; Afyon Kocatepe Üniversitesi,,university,38.80833,30.53549,Turkey,TR
http://www.wikidata.org/entity/Q4690953,Aga Khan University,AKU; Aga Khan University,,university,24.8928,67.0747,Uganda,UG
http://www.wikidata.org/entity/Q1325937,Agostinho Neto University,Universidade Agostinho Neto; Universidade de Luanda; アゴスティニョ・ネト大学; Universität Agostinho Neto,,university,-8.9419,13.28027,Angola,AO
http://www.wikidata.org/entity/Q3700049,Agricultural Academy in Dublany,Сільськогосподарська академія в Дублянах; Львівський сільськогосподарський інститут; Львівський державний аграрний університет; ЛДАУ; Państwowy Lwowski Uniwersytet Rolniczy,,university,49.9,24.092,Ukraine,UA
http://www.wikidata.org/entity/Q19881753,"Agricultural College and Research Institute, Killikulam",,,university,8.70339,77.8596,India,IN
http://www.wikidata.org/entity/Q4693931,Agricultural State University of Moldova,,,university,47.062,28.809,Moldova,MD
http://www.wikidata.org/entity/Q1804769,Agricultural University of Cracow,Wyższa Szkoła Rolnicza w Krakowie; Wydział Rolniczy Uniwersytetu Jagiellońskiego; Uniwersytet Rolniczy w Krakowie; Akademia Rolnicza w Krakowie; École supérieure d'agriculture Hugo Kollątaj; Académie d'agriculture Hugo Kołłątaj de Cracovie; Agricultural University of Kraków; Agricultural University of Krakow; Uniwersytet Rolniczy im. Hugona Kołłątaja w Krakowie; Akademia Rolnicza w Krakowie,,university,50.06472222,19.92472222,Poland,PL
http://www.wikidata.org/entity/Q4693944,Agricultural University of Hebei,河北农学院,,university,38.8466,115.47600833,China,CN
http://www.wikidata.org/entity/Q3481997,Agricultural University of Iceland,Lbhl; LbhÍ; Landbunadarhaskoli Islands; Islands landbrukshøyskole; LbhÍ,,university,64.56111111,-21.76972222,Iceland,IS
http://www.wikidata.org/entity/Q650473,Agricultural University of Tajikistan,Таджикский сельскохозяйственный институт,,university,38.6094,68.7869,Tajikistan,TJ
http://www.wikidata.org/entity/Q1738772,Agricultural University of Tirana,,,university,41.3622996,19.77105618,Albania,AL
http://www.wikidata.org/entity/Q400222,Ahfad University for Women,Ahfad University for Women; Ahfad Universität für Frauen; Afhad Universität für Frauen; جامعه الأحفاد للبنات,,university,15.6447855,32.4715197,Sudan,SD
http://www.wikidata.org/entity/Q4695192,Ahlia University,,,university,26.2359,50.593,Bahrain,BH
http://www.wikidata.org/entity/Q401034,Ahmadu Bello University,Ahmadu Bello University; Ahmadu Bello University; アーマドゥ・ベロー大学; Ahmadu Bello University,,university,11.15,7.65,Nigeria,NG
http://www.wikidata.org/entity/Q4696126,Ahmedabad University,,,university,23.039021,72.555996,India,IN
http://www.wikidata.org/entity/Q4702165,Ahram Canadian University,جامعه الأهرام الكنديه,,university,29.93527778,30.88277778,Egypt,EG
http://www.wikidata.org/entity/Q4696357,Ahsanullah University of Science and Technology,"Ahsanullah University of Science and Technology, Dhaka, Bangladesh; Ahsanullah University of Science and Technology, Dhaka; Ahsanullah University of Science and Technology; Ahsanullah university of science and technology; Ahsanullah University of Science & Technology; Ahasanullah University of Science and Technology (AUST); Ahasanullah University of Science and Technology; ইনডিপেন্ডেন্ট ইউনিভার্সিটি",,university,23.76361111,90.40694444,Bangladesh,BD
http://www.wikidata.org/entity/Q4696564,Aichi Bunkyo University,愛知文教大学大学院,,university,35.3,137.007,Japan,JP
http://www.wikidata.org/entity/Q4696570,Aichi Gakuin University,愛知学院; 愛学,,university,35.162,137.047,Japan,JP
http://www.wikidata.org/entity/Q4696572,Aichi Institute of Technology,名古屋電気大学; AITサイエンス大賞,,university,35.1836,137.1119,Japan,JP
http://www.wikidata.org/entity/Q4696577,Aichi Medical University,愛知医大,,university,35.1925,137.0474,Japan,JP
http://www.wikidata.org/entity/Q4696580,Aichi Mizuho College,,,university,35.125209,137.18791,Japan,JP
http://www.wikidata.org/entity/Q4696583,Aichi Prefectural College of Nursing & Health,APCNH; APCNAH,,university,35.28345556,136.92915833,Japan,JP
http://www.wikidata.org/entity/Q4696586,Aichi Prefectural University,愛知県立女子大学,,university,35.182,137.087,Japan,JP
http://www.wikidata.org/entity/Q3551850,Aichi Prefectural University of Fine Arts and Music,愛知芸大; APIFAM; Université des Arts de la Préfécture d'Aichi; Université des Arts de la Préfecture d'Aichi,,university,35.16944444,137.069625,Japan,JP
http://www.wikidata.org/entity/Q4696587,Aichi Sangyo University,愛知産業大学短期大学部,,university,34.921,137.223,Japan,JP
http://www.wikidata.org/entity/Q4696591,Aichi Shinshiro Otani University,ASOU,,university,34.9136,137.5345,Japan,JP
http://www.wikidata.org/entity/Q4696594,Aichi Shukutoku University,,,university,35.1574,137.0316,Japan,JP
http://www.wikidata.org/entity/Q4696597,Aichi Toho University,東邦学園大学,,university,35.1701,136.9869,Japan,JP
http://www.wikidata.org/entity/Q403626,Aichi University,現代中国学部; Universität Aichi; Aichi Daigaku,,university,34.740466,137.386517,Japan,JP
http://www.wikidata.org/entity/Q2118519,Aichi University of Education,あいちきょういくだいがく; Педагогічний Айті університет; Айтівський педагогічний університет; Aichi University of Education; 愛知教育大学附属学校; 愛知学芸大学; 愛教大; AUE; Aichi University of Education; Aichi Kyōiku Daigaku; Aichi Kyoiku Daigaku; 愛知第二師範学校,,university,35.05205,137.05035278,Japan,JP
http://www.wikidata.org/entity/Q4696596,Aichi University of Technology,,,university,34.832,137.1936,Japan,JP
http://www.wikidata.org/entity/Q4696980,Aikoku Gakuen University,,,university,35.665975,140.16168333,Japan,JP
http://www.wikidata.org/entity/Q2723670,Ain Shams University,Université d’Ain Shams; Université Ain-Shams; Ǧāmiʿat ʿAin Šams; Ain-Shams-Universität; Ain Shams University; جامعه عين شمس; جامعة إبراهيم باشا,0000 0004 0621 1570,university,30.07702222,31.28501667,Egypt,EG
http://www.wikidata.org/entity/Q4697462,Aino University,,,university,34.84277778,135.58222222,Japan,JP
http://www.wikidata.org/entity/Q407875,Air University,Airpower Journal,,university,32.385221,-86.345453,United States,US
http://www.wikidata.org/entity/Q1494353,Airlangga University,,,university,-7.268141,112.771096,Indonesia,ID
http://www.wikidata.org/entity/Q491082,Ajou University,아주대; 아주 대학교; Université d'Ajou,,university,37.282913,127.04607,South Korea,KR
http://www.wikidata.org/entity/Q19870575,Akademia Lospuma Training Institute,,,university,50.2592,19.0442,Poland,PL
http://www.wikidata.org/entity/Q169939,Akdeniz University,Akdeniz大学; Antalya Üniversitesi; Antalya Akdeniz Üniversitesi; Universidade do Mediterrâneo; Akdeniz Üniversitesi; Akdeniz University; دانشگاه اک‌دنیز; دانشگاه اک دنیز; دانشگاه آک دنیز; Akdeniz-Universität,,university,36.895,30.6511,Turkey,TR
http://www.wikidata.org/entity/Q419339,Akita International University,ミネソタ州立大学秋田校; Kokusai Kyōyō Daigaku,,university,39.627375,140.19790556,Japan,JP
http://www.wikidata.org/entity/Q56653,Akita Prefectural University,秋田县立大学; システム科学技術研究科,,university,39.39333333,140.07305556,Japan,JP
http://www.wikidata.org/entity/Q1340164,Akita University,あきただいがく; 秋田大学; Університет Акіта; 아키타 대학교; Akita University; 秋田大学附属学校; 秋田大; 秋大; Shūdai; Shudai; Akita-Universität; Akita Daigaku,,university,39.72803333,140.13404722,Japan,JP
http://www.wikidata.org/entity/Q11595255,Akita University of Art,公立大学法人秋田公立美術大学,,university,39.6865,140.09082222,Japan,JP
http://www.wikidata.org/entity/Q4701234,Akita University of Nursing and Welfare,AUONAW; AUNW,,university,40.2809826,140.5536854,Japan,JP
http://www.wikidata.org/entity/Q4701497,Akobo Heritage and Memorial University,,,university,7.77699,32.98593,South Sudan,SS
http://www.wikidata.org/entity/Q4701750,Aksaray University,Aksaray üniversitesi,,university,38.326,33.9761,Turkey,TR
http://www.wikidata.org/entity/Q2829294,Al Akhawayn University,Université alakhawayn; Université Al-Akhawayne; Université Al Akhawayn; Alakhawayn University in Ifrane; Alakhawayn University; Alakhawayn; Al Akhawayn; Al akhawayn; جامعه الأخوين,,university,33.539248,-5.105553,Morocco,MA
http://www.wikidata.org/entity/Q4703503,Al Asmarya University for Islamic Sciences,الجامعه الأسمريه للعلوم الإسلاميه; الجامعة الاسمرية للعلوم الإسلامية; الجامعة الأسمرية,,university,32.4681,14.5672,Libya,LY
http://www.wikidata.org/entity/Q173959,Al Azhar,愛資哈爾大學; Al-Azhar University; جامعہ ازہر; Ель-Азхар; Аль-Азхар; El Ezher Üniversitesi; El Ehzer İslam Üniversitesi; El Azhar İslam Üniversitesi; มหาลัยอัลอัซฮัร; Al-Azharmoskén; Al-Azhar-universitetet; Al-Azhar al-Sarif; Al-Azhar; Al Azharuniversitetet; Al Azhar-universitetet; Al-Azhar; Исламский университет Аль-Азхар; Аль-Азхар; Ал-Азхар; Азхар; Universidade al-azhar; الازهر پوهنتون; De schitterende al-Azhar; Al-Azhar universiteit; Al-Azhar; Al Azhar universiteit; Al Azhar; Universiti Al Azhar; Masjid al-Azhar; Al-Azhar University; Al-Azharo universitetas; 알아즈하르 대학; 알 아즈하르 대학교; 알 아즈하르 대학; 아즈하르 대학교; 아즈하르 대학; 아자르대학교; 아자르 대학교; Әл-Азhар университеті; ალ-აზარის უნივერსიტეტი; アズハル学院; アズハル大学; アズハル; Moschea-Università di al-Azhar; El Azhar; Al-Azhar; Universitas Al Azhar; אלאזהר; אל אזהר; אוניברסיטת אל-אזהר; אוניברסיטת אל אזהר; Université d'Al-Azhar; Universite al-Azhar; Al Azhar; دانشگاه الازهر مصر; دانشگاه اسلامی الازهر; جامع الازهر; پوهنتون الازهر; الازهر; Universidad de Al Azhar; Universidad al-Azhar; Universidad Al Azhar; Al-Azhar; Al Azhar; Al Azhar; Al-Azhar University; Αζχάρ; Azhar-Universität; Al-Azhar Universität; Al-Ashar-Universität; Mešita al-Azhar; Al-Azhar; زانکۆی ئەزهەر; Al-Azhar; محمد بن علي العمري; جامعه الأزهر; جامعة الأزهر الشريف; الأزهر(مفاهيم),,university,30.045833333333,31.2625,Egypt,EG
http://www.wikidata.org/entity/Q4704378,Al Mansour University College,كليه المنصور الجامعه,,university,33.315,44.42833333,Iraq,IQ
http://www.wikidata.org/entity/Q4704691,Al Rasheed University College,كليه الرشيد الجامعه,,university,33.28472222,44.30944444,Iraq,IQ
http://www.wikidata.org/entity/Q4704901,Al Turath University College,كليه التراث الجامعه,,university,33.31805556,44.36055556,Iraq,IQ
http://www.wikidata.org/entity/Q4705001,Al Yarmouk University College,كليه اليرموك الجامعه,,university,33.3,44.44444444,Iraq,IQ
http://www.wikidata.org/entity/Q3066997,Al Zawiya University,جامعه السابع من أبريل; جامعة السابع من ابريل; جامعة السابع من أبريل; جامعة 7 ابريل; جامعة 7 أبريل,,university,32.75,12.7167,Libya,LY
http://www.wikidata.org/entity/Q4705048,Al al-Bayt University,AABU; جامعه آل البيت,0000 0001 0679 2502,university,32.361,36.219,Jordan,JO
http://www.wikidata.org/entity/Q288605,Al-Aqsa University,Universidade de Al-Aqsa; Universite al-Aqsa; Al-Aksa-Universität,,university,31.4836,34.445544,Palestinian Territory,PS
http://www.wikidata.org/entity/Q292489,Al-Azhar University – Gaza,Al-Azhar Uni; جامعه الأزهر بغزه; جامعة الأزهر-غزة; جامعة الأزهر بغزة; جامعة الأزهر - غزة; جامعة الأزهر,,university,31.048406,34.856057,Israel,IL
http://www.wikidata.org/entity/Q797514,Al-Baath University,Universität Homs; Ǧāmiʿat al-Baʿṯ; جامعه البعث; جامعة البعث كلية الطب البيطري,,university,34.7128,36.7086,Syria,SY
http://www.wikidata.org/entity/Q4702404,Al-Furat University,,,university,35.31888889,40.11055556,Syria,SY
http://www.wikidata.org/entity/Q4702538,Al-Hussein Bin Talal University,جامعه الحسين بن طلال,,university,30.26638889,35.68111111,Jordan,JO
http://www.wikidata.org/entity/Q310842,Al-Mustansiriya University,Universite al-Mustansiriyah; Mustansiriyya; Médersa al-Mustansiriyah; Madrasa al-Mustansiriyya; Al Mustansiriya; Al-Mustansirijah-Universität; Al-Madrasa al-Mustansiriyya; جامعة مستنصرية; جامعة المستنصرية; المستنصريّة; المستنصرية; الجامعه المستنصريه; الجامعة ألمستنصرية,,university,33.33861111,44.38972222,Iraq,IQ
http://www.wikidata.org/entity/Q4702996,Al-Muthana University,جامعه المثنى,,university,31.33861111,45.28888889,Iraq,IQ
http://www.wikidata.org/entity/Q1853678,Al-Quds Open University,El Kudüs Açık Üniversitesi; Al-Quds Open University; QOU; جامعه القدس المفتوحه,,university,31.91305556,35.19944444,Palestinian Territory,PS
http://www.wikidata.org/entity/Q310564,Al-Quds University,אוניברסיטת אל קודס; Universite al-Qods; دانشگاه القدس,,university,31.755908333333,35.261380555556,Palestinian Territory,PS
http://www.wikidata.org/entity/Q17058840,Al-Zahra College for Women,,,university,23.6128,58.4845,Oman,OM
http://www.wikidata.org/entity/Q1551044,Alabama Agricultural and Mechanical University,Alabama A&M University; دانشگاه کشاورزی و مهندسی الاباما; Alabama A&M University; AAMU; Alabama A&M,,university,34.7846,-86.5699,United States,US
http://www.wikidata.org/entity/Q941524,Alabama State University,அலபாமா மாநிலப் பல்கலைக்கழகம்,,university,32.364,-86.295,United States,US
http://www.wikidata.org/entity/Q4705575,Alagappa University,,,university,10.078603,78.79468,India,IN
http://www.wikidata.org/entity/Q4705896,Alamein University,,,university,30.84083333,28.92694444,Egypt,EG
http://www.wikidata.org/entity/Q1565621,Alaska Pacific University,,,university,61.1893,-149.804,United States,US
http://www.wikidata.org/entity/Q18209173,Alauddin Islamic State University,,,university,-5.1767,119.4341,Indonesia,ID
http://www.wikidata.org/entity/Q4709336,Albany Law School,オールバニ法科大学院; オールバニ法律学校; オーバルニ・ロースクール; アルバニー・ロー・スクール,,university,42.6524,-73.7773,United States,US
http://www.wikidata.org/entity/Q4709395,Albany Technical College,,,university,31.5535,-84.1745,United States,US
http://www.wikidata.org/entity/Q2030894,Albert Einstein College of Medicine,愛因斯坦醫科大學; アルベルト・アインシュタイン医科大学; アルバート・アインシュタイン医科大学; アルバート・アインシュタイン医学校; Aecom; AECOM; کالج پزشکی آلبرت اینشتین; کالج پزشکی آلبرت انیشتین; دانشکدهٔ پزشکی البرت اینشتین; دانشکده پزشکی البرت اینشتین; دانشکدهٔ پزشکی آلبرت اینشتین; جامعه يشيفا كليه طب ألبرت آينستاين,0000 0001 2179 1997,university,40.850852,-73.844949,United States,US
http://www.wikidata.org/entity/Q4712073,Alberto Hurtado University,Universidad alberto hurtado; UAH,,university,-33.44481667,-70.66204444,Chile,CL
http://www.wikidata.org/entity/Q1805243,Alcorn State University,Алкорн; Alcorn State University,,university,31.87694,-91.14111,United States,US
http://www.wikidata.org/entity/Q2501849,Alecu Russo State University of Bălţi,"Бельцкий государственный университет им. Алеку Руссо; Universitatea de Stat ""Alecu Russo""",,university,47.75486667,27.92166111,Moldova,MD
http://www.wikidata.org/entity/Q1479914,Aleksandras Stulginskis University,Litewski Uniwersytet Rolniczy; Žemės ūkio akademija; LŽŪU; LŽŪA; Lietuvos žemės ūkio universitetas; Lietuvos žemės ūkio akademija; Dotnuvos žemės ūkio akademija; LŽŪA; Lietuvos žemės ūkio universitetas; Lietuvos zemės ukio universitetas; Lietuvos žemės ūkio akademija; Landwirtschaftliche Universität Litauens; Aleksandro Stulginskio universitetas,,university,54.91016667,23.94813889,Lithuania,LT
http://www.wikidata.org/entity/Q3302123,Aleksandër Moisiu University,"Universiteti ""Aleksander Moisiu"" Durres; Universiteti ""Aleksander Moisiu""",,university,41.313534,19.434216,Albania,AL
http://www.wikidata.org/entity/Q1334412,Aleksandër Xhuvani University,"Universiteti i Elbasanit ""Aleksandër Xhuvani""; Universiteti Aleksandër Xhuvani; Universiteti ""Aleksandër Xhuvani""",,university,41.1220549,20.0793386,Albania,AL
http://www.wikidata.org/entity/Q4716513,Aletheia University,真理大学; 淡水工商管理專科學校; 淡水工商管理學院; Aletheia University,,university,25.17666,121.434621,Taiwan,TW
http://www.wikidata.org/entity/Q1523902,Alexandru Ioan Cuza University,,,university,47.174230555556,27.571691666667,Romania,RO
http://www.wikidata.org/entity/Q4118882,Alfaisal University,,,university,24.664003,46.67625183,Saudi Arabia,SA
http://www.wikidata.org/entity/Q3446091,Alfred University,,,university,42.255555555556,-77.787527777778,United States,US
http://www.wikidata.org/entity/Q1261103,Algoma University,アルゴマ大学カレッジ,,university,46.503572222222,-84.298911111111,Canada,CA
http://www.wikidata.org/entity/Q19599644,Ali Institute of Education,,,university,31.4863,74.3386,Pakistan,PK
http://www.wikidata.org/entity/Q258200,All Nations University,,,university,6.090544,-0.263329,Ghana,GH
http://www.wikidata.org/entity/Q4729602,All Saints University,,,university,2.235556,32.8975,Uganda,UG
http://www.wikidata.org/entity/Q4127435,All-Russian Academy of Foreign Trade,Všesvazová akademie vnějšího obchodu; VAVT; Akademie vnějšího obchodu; 全俄羅斯對外貿易學院; Всесоюзная академия внешней торговли; ВАВТ; Академия внешней торговли,,university,55.727,37.534,Russia,RU
http://www.wikidata.org/entity/Q49041,Allen University,,,university,34.010556,-81.020556,United States,US
http://www.wikidata.org/entity/Q19881869,Allenhouse Institute of Technology,,,university,26.3656,80.4361,India,IN
http://www.wikidata.org/entity/Q2649559,Alma Mater Viadrina,Brandenburgische Universität Frankfurt; Brandenburgische Universität Frankfurt,,university,52.349,14.54886111,Germany,DE
http://www.wikidata.org/entity/Q4062778,Almaty University of Power Engineering and Telecommunications,АУЭС; Алматинский институт энергетики и связи; Алма-Атинский энергетический институт; Алма-Атинский институт энергетики и связи; АИЭС; Алматы Энергетика және Байланыс Институты,,university,43.2775,76.8958,Kazakhstan,KZ
http://www.wikidata.org/entity/Q2399553,Almaty University of Technology,Алматинский технологический институт; Алматы Технологиялық Институты,,university,43.252414,76.926666,Kazakhstan,KZ
http://www.wikidata.org/entity/Q4063511,Almetyevsk State Petroleum Institute,Әлмәт нефть институты; АГНИ,,university,54.90472223,52.01111112,Russia,RU
http://www.wikidata.org/entity/Q690639,Alpen-Adria-Universität Klagenfurt,Университет Клагенфурта; Альпийско-адриатический университет; Universite de Klagenfurt; University of Klagenfurt; Universität für Bildungswissenschaften; Uni Klagenfurt; Hochschule für Bildungswissenschaften; Alpen-Adria-Universität Klagenfurt; Alpen-Adria-Universität,,university,46.616388888889,14.265,Austria,AT
http://www.wikidata.org/entity/Q4735687,Alrafidain University College,كلية الرافدين الجامعة الاهلية,,university,33.36416667,44.40722222,Iraq,IQ
http://www.wikidata.org/entity/Q4062909,Altai State Academy of Culture and Arts,,,university,53.35009,83.775998,Russia,RU
http://www.wikidata.org/entity/Q4062927,Altai State Agrarian University,Алтайский сельхозинститут; Алтайский сельскохозяйственный институт,,university,53.32977701,83.78313801,Russia,RU
http://www.wikidata.org/entity/Q4062936,Altai State University,АлтГУ,,university,53.35,83.783,Russia,RU
http://www.wikidata.org/entity/Q4736101,Altamaha Technical College,,,university,31.6217,-81.91,United States,US
http://www.wikidata.org/entity/Q4737977,Alvernia University,,,university,40.31,-75.935,United States,US
http://www.wikidata.org/entity/Q450587,Alzahra University,دانشگاه فرح پهلوی; Farah-Pahlavi-Universität,,university,35.7675,51.3925,Iran,IR
http://www.wikidata.org/entity/Q4741189,Ambedkar University Delhi,Bharat Ratna Dr. B. R. Ambedkar University,,university,28.66416667,77.2325,India,IN
http://www.wikidata.org/entity/Q4741376,Amberton University,Amberton University,,university,32.8599,-96.6529,United States,US
http://www.wikidata.org/entity/Q20011307,American College of the Building Arts,,,university,32.7785,-79.9372,United States,US
http://www.wikidata.org/entity/Q3194784,American International University-Bangladesh,"এআইইউবি; আমেরিকান ইন্টারন্যাশনাল ইউনিভার্সিটি,বাংলাদেশ; অ্যামেরিকান ইন্টারন্যাশনাল ইউনিভার্সিটি-বাংলাদেশ; AIUB",,university,23.7945,90.4016,Bangladesh,BD
http://www.wikidata.org/entity/Q1563835,American Jewish University,美国犹太大学; Elliot Dorff; University of Judaism; Brandeis-Bardin Institute,,university,34.12782778,-118.47165278,United States,US
http://www.wikidata.org/entity/Q21980979,American Military University,AMU,,university,39.287782,-77.860082,United States,US
http://www.wikidata.org/entity/Q21980971,American Public University,APU,,university,39.287781944444,-77.860081944444,United States,US
http://www.wikidata.org/entity/Q4745156,American Sports University,,,university,34.1063,-117.292,United States,US
http://www.wikidata.org/entity/Q4745229,American Temperance University,,,university,35.933889,-84.551944,United States,US
http://www.wikidata.org/entity/Q168000,American University,The American University; 아메리칸대학교; دانشگاه آمریکن; American University; الجامعه الأميركيه; AU,,university,38.937055,-77.086922,United States,US
http://www.wikidata.org/entity/Q469484,American University in Bulgaria,Universitatea Americană din Bulgaria; AUBG; دانشگاه ایالات متحدهیی بلغارستان; دانشگاه امریکایی بلغارستان; АУБ; Американски Университет в България; Американски университет в Благоевград,,university,42.021388888889,23.095,Bulgaria,BG
http://www.wikidata.org/entity/Q469476,American University in Cairo,埃及美國大學; アメリカ大学カイロ校; Американский Университет Каира; Det amerikanske universitetet i Kairo; Université américaine du caire; Universite americaine du Caire; American University in Cairo; دانشگاه ایالات متحدهیی قاهره; دانشگاه امریکایی قاهره; Usona Universitato en Kairo; American University of Cairo; الجامعه الامريكيه فى القاهرة; الجامعه الأمريكيه فى القاهره; جامعة أمريكية (القاهرة); الجامعه الأمريكيه بالقاهره; الجامعة الاميريكية في القاهرة; الجامعة الامريكية بالقاهرة; الجامعة الأميركية في القاهرة; الجامعة الأميركية بالقاهرة; الجامعة الأمريكية في القاهرة,,university,30.019944444444,31.500344444444,Egypt,EG
http://www.wikidata.org/entity/Q467144,American University in Dubai,دانشگاه ایالات متحدهیی دوبی; دانشگاه ایالات متحدهیی دبی; دانشگاه امریکایی دوبی; دانشگاه امریکایی دبی; دانشگاه آمریکایی دوبی; الجامعه الأمريكيه في دبي; الجامعة الأمريكية في الإمارات; الجامعة الأمريكية بدبي,,university,25.090833333333,55.156388888889,United Arab Emirates,AE
http://www.wikidata.org/entity/Q4745312,American University in Kosovo,,,university,42.6702,21.1921,Kosovo,XK
http://www.wikidata.org/entity/Q3291620,American University of Antigua,کالج پزشکی دانشگاه ایالات متحدهیی آنتیگوا; کالج پزشکی دانشگاه امریکایی انتیگوا,,university,17.158803,-61.797355,Antigua and Barbuda,AG
http://www.wikidata.org/entity/Q469482,American University of Beirut,Beyrut amerikan üniversitesi; Università Americana di Beirut; Universitas amerika di beirut; American University of Beirut; האוניברסיטה האמריקאית בביירות; Université Américaine de Beyrouth; Université américaine de beyrouth; Universite americaine de Beyrouth; AUB; American University of Beirut; دانشگاه ایالات متحدهیی بیروت; دانشگاه امریکایی بیروت; Usona Universitato de Bejruto; Usona Universitato de Beirut; Amerikanische Universität von Beirut; American University of Beirut; الجامعه الأمريكيه فى بيروت; المدرسة البطريكية; الكلية السورية البروتستانتية; الكلية الإنجيلية السورية; الكلية الأميركية ببيروت; الجامعه الأميركيه في بيروت; الجامعة الاميركية في بيروت; الجامعة الأميركية ببيروت; الجامعة الأمريكية في بيروت; الجامعة الأمريكية ببيروت,,university,33.899963888889,35.482283333333,Lebanon,LB
http://www.wikidata.org/entity/Q4116094,American University of Kuwait,دانشگاه ایالات متحدهیی کویت; دانشگاه امریکایی کویت; الجامعه الأمريكيه في الكويت; الجامعة الامريكية في الكويت,,university,29.343889,48.083056,Kuwait,KW
http://www.wikidata.org/entity/Q467174,American University of Madaba,,,university,31.661199,35.800066,Jordan,JO
http://www.wikidata.org/entity/Q16827955,American University of Phnom Penh,,,university,11.5771,104.893,Cambodia,KH
http://www.wikidata.org/entity/Q469446,American University of Rome,Université américaine de Rome; دانشگاه ایالات متحدهیی رم; دانشگاه امریکایی رم,,university,41.8857,12.4623,Italy,IT
http://www.wikidata.org/entity/Q4745321,American University of Science and Technology,دانشگاه ایالات متحدهیی علم و صنعت; دانشگاه امریکایی علم و صنعت,,university,33.884444,35.5225,Lebanon,LB
http://www.wikidata.org/entity/Q4115992,American University of Sharjah,アメリカン大学シャールジャ校; دانشگاه ایالات متحدهیی شارجه; دانشگاه امریکایی شارجه; الجامعه الأمريكيه في الشارقه,,university,25.309722,55.490556,United Arab Emirates,AE
http://www.wikidata.org/entity/Q4745324,American University of Technology,دانشگاه امریکایی فناوری,,university,34.423611,35.8325,Lebanon,LB
http://www.wikidata.org/entity/Q4745319,American University of Tirana,,,university,41.27999167,19.86264722,Albania,AL
http://www.wikidata.org/entity/Q4746780,Amirkabir University of Technology,دانشگاه صنعتی امیر کبیر; دانشگاه پلی تکنیک تهران; دانشگاه امیرکبیر; دانشگاه امیر کبیر; پلی تکنیک تهران; Tehran Polytechnic,,university,35.704402777778,51.409,Iran,IR
http://www.wikidata.org/entity/Q3493066,Amoud University,Jaamacada Camuud,,university,9.945,43.223,Somalia,SO
http://www.wikidata.org/entity/Q4064568,Amur State Medical Academy,Благовещенский медицинский институт; Амурская Государственная Медицинская Академия; АГМА,,university,50.26555557,127.5458333,Russia,RU
http://www.wikidata.org/entity/Q4750013,An Giang University,ĐHAG; Đại học An Giang,,university,10.3718,105.431,Vietnam,VN
http://www.wikidata.org/entity/Q2096138,An-Najah National University,アン＝ナジャーフ大学; An-Najah Nationaluniversität; جامعه النجاح الوطنيه; جامعة النجاح الوطنيه; جامعة النجاح الوطنية في نابلس; جامعة النجاح الوطنية بنابلس; جامعة النجاح; النجاح,,university,32.22027778,35.24444444,Palestinian Territory,PS
http://www.wikidata.org/entity/Q4750900,Anaheim University,アナハイム大学 大学院; アナハイム大学 キショウ・クロカワ グリーンインスティテュート; アナハイム大学 アキラ・クロサワ スクールオブフィルム; アナハイム大学 アキオ・モリタ スクールオブビジネス,,university,33.8169,-117.888,United States,US
http://www.wikidata.org/entity/Q4750915,Anahuac Mayab University,Universidad del Mayab; Universidad Anahuac Mayab,,university,21.11055556,-89.61138889,Mexico,MX
http://www.wikidata.org/entity/Q750169,Anahuac University Network,Universidad Anáhuac; Universidad Anahuac; Anahuacuniversiteit; Anáhuac-universiteit; Anahuac-universiteit; Red de Universidades Anahuac; Universität Anáhuac; Universität Anahuac; Universidad Anahuac; Anáhuac-Universität; Anahuac-Universität,,university,19.399902,-99.267672,Mexico,MX
http://www.wikidata.org/entity/Q4751234,Anand Agricultural University,,,university,22.53583333,72.97472222,India,IN
http://www.wikidata.org/entity/Q280361,Andalas University,Universitas Andalas,,university,-0.9145,100.46,Indonesia,ID
http://www.wikidata.org/entity/Q4754216,Anderson University,,,university,40.111944444444,-85.666111111111,United States,US
http://www.wikidata.org/entity/Q3521052,Andhra University,ఆంధ్రా విశ్వవిద్యాలయం; ఆంధ్రా యూనివర్సిటీ; ఆంధ్రవిశ్వవిద్యాలయం; ఆంధ్ర విశ్వవిద్యాలయము; ఆంధ్ర విశ్వకళాపరిషత్తు; ఆంధ్ర విశ్వకళా పరిషత్తు; ఆంధ్ర విశ్వకళా పరిషత్; అంధ్రా విశ్వవిద్యాలయం; Andhra Viswa Kala Parishad; Andhra University; Andhra Universidad; Andhra Viswa Kala Parishad,,university,17.72927222,83.32155833,India,IN
http://www.wikidata.org/entity/Q4754337,Andhra-Christian College,ACC,,university,16.296611111111,80.442527777778,India,IN
http://www.wikidata.org/entity/Q494638,Andong National University,안동사범학교; 안동사범고등학교; 안동대학; 안동대; 安東大学,,university,36.54157,128.79642,South Korea,KR
http://www.wikidata.org/entity/Q281572,Andrássy University Budapest,Andrássy-universitetet,0000 0001 0669 8786,university,47.49179,19.064208,Hungary,HU
http://www.wikidata.org/entity/Q4760155,Andrés Bello Catholic University,Andres Bello Catholic University; Universidad Católica Andres Bello; Universidad Catolica Andrés Bello; Universidad Catolica Andres Bello; UCAB; Yukpa de Colombia y Venezuela,,university,10.4642,-66.9758,Venezuela,VE
http://www.wikidata.org/entity/Q4761983,Angarsk State Technical Academy,АГТА,,university,52.5275,103.8644444,Russia,RU
http://www.wikidata.org/entity/Q536709,Angelo State University,英語版; دانشگاه ایالتی انجلو; Angelo State,,university,31.4375,-100.45833333333,United States,US
http://www.wikidata.org/entity/Q540751,Anglia Ruskin University,安格利亞魯斯金大學; Anglia ruskin üniversitesi; Anglia Ruskin University; Anglia Polytechnic University; Cambridge School of Art; Anglia-Ruskin-Universität; Anglia Polytechnic University,,university,52.203083333333,0.13369444444444,United Kingdom,GB
http://www.wikidata.org/entity/Q4763585,Anglo-American University,,,university,50.091567,14.410114,Czechia,CZ
http://www.wikidata.org/entity/Q4764372,Anhui Medical University,,,university,31.8486,117.263,China,CN
http://www.wikidata.org/entity/Q545540,Anhui University,安徽银行学校; 安徽省立大學; 安徽省立大学; 合肥大学,,university,31.845516,117.251596,China,CN
http://www.wikidata.org/entity/Q4765985,"Ankara University, Law School",AÜHF; AÜ Hukuk; Ankara üniversitesi hukuk fakültesi; Ankara Hukuk Mektebi; Ankara Üniversitesi Hukuk Fakültesi; Ankara Üniversitesi Hukuk Fakültesi,,university,39.92906,32.87182,Turkey,TR
http://www.wikidata.org/entity/Q4766090,Ankole Western University,,,university,-0.57361111,30.38,Uganda,UG
http://www.wikidata.org/entity/Q165053,Anna University,"అన్నా విశ్వవిద్యాలయం; College of Engineering, Guindy; Anna University of Technology",,university,13.01268,80.236362,India,IN
http://www.wikidata.org/entity/Q3275551,Annamalai University,அண்ணாமலைப் பல்கலைக் கழகம்; அண்ணாமலை பல்கலைக்கழகம்; അണ്ണാമല സർവകലാശാല; Annamalai University; अन्नामलई विश्वविद्यालय,,university,11.390845,79.714758,India,IN
http://www.wikidata.org/entity/Q4770495,Ansal Institute of Technology,,,university,28.431,77.111,India,IN
http://www.wikidata.org/entity/Q1443595,Antananarivo University,Университет Тананариве; Università di Antananarivo; Université de Tananarive; Université d’Antananarivo; Universidad de Tananarive; Tananarive University; Universität Tananarive,,university,-18.9152,47.5558,Madagascar,MG
http://www.wikidata.org/entity/Q1117071,Antenor Orrego Private University,Universidad Privada Antenor Orrego,,university,-8.127258,-79.031669,Peru,PE
http://www.wikidata.org/entity/Q4775029,Antioch School of Law,,,university,38.9442,-77.0633,United States,US
http://www.wikidata.org/entity/Q4775035,Antioch University,アンティオック大学; AULA; Antoich; Antiok; Antioc; Antioch,,university,39.8035,-83.907166666667,United States,US
http://www.wikidata.org/entity/Q4775041,Antioch University New England,Antioch New England Graduate School,,university,42.9319,-72.2939,United States,US
http://www.wikidata.org/entity/Q4775043,Antioch University Seattle,,,university,47.6174,-122.343,United States,US
http://www.wikidata.org/entity/Q4775036,Antioch University West,,,university,37.7914,-122.406,United States,US
http://www.wikidata.org/entity/Q461551,"Anton Bruckner Private University for Music, Drama, and Dance","ブルックナー音楽大学; Anton Bruckner Privatuniversität für Musik, Schauspiel und Tanz; Bruckneruni; Brucknerkonservatorium; Bruckner-Konservatorium; Anton Bruckner Privatuniversität Linz; ABPU",,university,48.315555555556,14.285277777778,Austria,AT
http://www.wikidata.org/entity/Q1975617,Anton de Kom University of Suriname,Universiteit van Suriname; AdeKUS,,university,5.81402,-55.21626,Suriname,SR
http://www.wikidata.org/entity/Q4776351,Antonine University,,,university,33.8375,35.53638889,Lebanon,LB
http://www.wikidata.org/entity/Q766040,Antwerp University Association,AUHA,,university,51.1844,4.42026,Belgium,BE
http://www.wikidata.org/entity/Q624189,Anyang University,안양대,,university,37.39166667,126.91972222,South Korea,KR
http://www.wikidata.org/entity/Q4778668,Aomori Chuo Gakuin University,経営法学部; ACGU,,university,40.783616,140.761868,Japan,JP
http://www.wikidata.org/entity/Q835744,Aomori Public University,Aomori Public College,,university,40.75388889,140.77194444,Japan,JP
http://www.wikidata.org/entity/Q4778676,Aomori University,青大,,university,40.78333333,140.77944444,Japan,JP
http://www.wikidata.org/entity/Q3551849,Aomori University of Health and Welfare,AUOHAW; AUHW,,university,40.81333333,140.79083333,Japan,JP
http://www.wikidata.org/entity/Q18109719,Apex Professional University,,,university,25.61,91.9014,India,IN
http://www.wikidata.org/entity/Q4780415,Apollos University,,,university,33.715,-117.989,United States,US
http://www.wikidata.org/entity/Q4780856,Appalachian School of Law,,,university,37.2768,-82.095,United States,US
http://www.wikidata.org/entity/Q620640,Appalachian State University,阿巴拉契亞州立大學; ASU,,university,36.213843,-81.678621,United States,US
http://www.wikidata.org/entity/Q19864500,Apple University,,,university,37.3318,-122.031,United States,US
http://www.wikidata.org/entity/Q4783001,Aquincum Institute of Technology,AIT,,university,47.560833333333,19.053611111111,Hungary,HU
http://www.wikidata.org/entity/Q4783194,Arab International University,الجامعه العربيه الدوليه الخاصه,,university,33.176,36.2995,Syria,SY
http://www.wikidata.org/entity/Q495343,Arak University,,,university,34.080182,49.677295,Iran,IR
http://www.wikidata.org/entity/Q4783795,Arak University of Medical Sciences,,,university,34.08,49.7,Iran,IR
http://www.wikidata.org/entity/Q4783794,Arak University of Technology,دانشکدهٔ فنی و مهندسی اراک; دانشکده فنی و مهندسی اراک,,university,34.08,49.7,Iran,IR
http://www.wikidata.org/entity/Q4411479,Arcada University of Applied Sciences,Arcada – Nylands svenska yrkeshögskola; Ammattikorkeakoulu Arcada; Arcada,,university,60.20138889,24.96527778,Finland,FI
http://www.wikidata.org/entity/Q4785174,Arcadia University,Beaver College,,university,40.092,-75.1655,United States,US
http://www.wikidata.org/entity/Q12808547,Ardahan University,Ardahan üniversitesi,,university,41.107,42.7024,Turkey,TR
http://www.wikidata.org/entity/Q4788041,Ardhi University,Ardhi University,,university,-6.76472222,39.21416667,Tanzania,TZ
http://www.wikidata.org/entity/Q667568,Aristotle University of Thessaloniki,テサロニキ・アリストテレス大学; テッサロニキ大学; アリストテレス大学テッサロニキ校; アリストテレス・テッサロニキ大学; 亚里士多德大学; Фессалонікійський університет Аристотеля; Університет Аристотеля в Салоніках; Universitetet i Thessaloniki; Thessalonikis Universitet; Aristotelesuniversitet i Thessaloniki; Университет имени Аристотеля в Фесалониках; Университет имени Аристотеля в Салониках; Университет им Аристотеля в Фесалониках; Университет им Аристотеля в Салониках; Университет Аристотеля в Фесалониках; Университет Аристотеля в Тесалониках; Салоникский университет имени Аристотеля; Салоникский университет им Аристотеля; Салоникский университет Аристотеля; Салоникский университет; Аристотелевский Университет в Салониках; Аристотелевский Университет; Universidade Aristóteles de Salônica; Universiteit van Thessaloniki; Aristoteles Universiteit Thessaloniki; Universitas Aristotelis; 아리스토틀 대학교 테살로니키; Università di Salonicco; Université de Thessalonique; Université de Salonique; Université aristote de thessalonique; Universite Aristote de Thessalonique; Université Aristote de Salonique; Universidad de Tesalónica; Universidad Aristóteles de Tesalónica; Universidad Aristoteles de Tesalónica; Universidad Aristoteles de Tesalonica; University of Thessaloniki; Aristotelian University; Πανεπιστήμιο Θεσσαλονίκης; Αριστοτέλειο Πανεπιστήμιο; Αριστοτέλειο; ΑΠΘ; Α.Π.Θ.; Α.Π.Θ; Universität Thessaloniki; Aristotelova univerzita v Soluni; Аристотелев университет; جامعة آرسطوطليون,0000 0001 2152 5373,university,40.63,22.958055555556,Greece,GR
http://www.wikidata.org/entity/Q4791264,Arizona Center for Medieval and Renaissance Studies,ACMRS,,university,33.42111111,-111.93166667,United States,US
http://www.wikidata.org/entity/Q4791274,Arizona Christian University,,,university,33.5959,-112.026,United States,US
http://www.wikidata.org/entity/Q670897,Arizona State University,亞利桑拿州立大學; Arizona State University; Arizona State University; Universidade Estadual do Arizona; Universidade estadual do arizona; Universidade Estadual de Arizona; Universidade estadual de arizona; Universidade do estado do arizona; Universidade do Estado de Arizona; Universidade do estado de arizona; Arizona State University; Uniwersytet Stanowy Arizona; Staatsuniversiteit van Arizona; Arizona Staatsuniversiteit; Arizona State Univeristy; 애리조나주립대학교; 애리조나 주립대학교; 아리조나 주립대학교; 아리조나 주립 대학교; Arizona State University; אוניברסיטת מדינת אריזונה; אוניברסיטת אריזונה סטייט; Arizona State University; دانشگاه ایالتی اریزونا; Universidad estatal de arizona; Universidad del Estado de Arizona; Arizona State University; ASU Tempe; Arizona State; ASU; ASU,,university,33.421111111111,-111.93166666667,United States,US
http://www.wikidata.org/entity/Q500131,Arkansas State University,دانشگاه ایالتی ارکنسا; دانشگاه ایالتی ارکانسا; دانشگاه ایالتی ارکانزاس; دانشگاه ایالتی آرکنسا; دانشگاه ایالتی آرکانسا; Arkansas State University-Jonesboro,,university,35.841082,-90.679586,United States,US
http://www.wikidata.org/entity/Q4791874,Arkansas State University-Mountain Home,,,university,36.3208,-92.3881,United States,US
http://www.wikidata.org/entity/Q4069721,Armenian College,,,university,22.55488,88.35336,India,IN
http://www.wikidata.org/entity/Q4314967,Armenian National Agrarian University,Государственный аграрный университет Армении; ՀՊԱՀ; Հայկական գյուղատնտեսական ակադեմիա; Հայաստանի Պետական Ագրարային Համալսարան; Հայաստանի պետական ագրարային համալսարան,,university,40.18861111,44.52222222,Armenia,AM
http://www.wikidata.org/entity/Q4793237,Armenian State Institute of Physical Culture,地元の学校,,university,40.1761,44.5239,Armenia,AM
http://www.wikidata.org/entity/Q1977379,Armenian State Pedagogical University,"Вірменський педагогічний інститут; Армянский педагогический институт имени имени Хачатура Абовяна; Հայկական Մանկավարժական Ինստիտուտ; Խ. Աբովյանի անվան մանկավարժական համալսարան; Խ. Աբովյանի անվան մանկավարժական ինստիտուտ; Խ. Աբովյանի անվան Հայկական պետական մանկավարժական համալսարան; Խ, Աբովյանի անվան Հայկական պետական մանկավարժական համալսարան; Երևանի Մանկավարժական Ինստիտուտ",,university,40.17517778,44.52366111,Armenia,AM
http://www.wikidata.org/entity/Q4793919,Armstrong Atlantic State University,アームストロング・アトランティック州立大学; Armstrong,,university,31.979,-81.16,United States,US
http://www.wikidata.org/entity/Q4794168,Army Logistics University,,,university,37.225,-77.3464,United States,US
http://www.wikidata.org/entity/Q3272069,Art Center College of Design,アートセンター・カレジッジ・オブ・デザイン; 藝術中心設計學院; 帕薩迪納設計藝術中心學院; کالج مرکز هنر طراحی; Art Center School,,university,34.16922,-118.18522,United States,US
http://www.wikidata.org/entity/Q835079,Art and Design University of Cluj-Napoca,"Universitatea de Artă și Design, Cluj Napoca; Universitatea de Artă şi Design, Cluj Napoca; Universitatea de Artă și Design Cluj-Napoca; Universitatea de Artă şi Design Cluj-Napoca; Universitatea de Artă şi Design; Institutul de Arte Plastice Ion Andreescu; Academia de Arte Vizuale „Ion Andreescu”; Universitatea de Artă și Design; Universitatea de Artă şi Design; Kunstuniversität Cluj-Napoca; Kunstuniversität Cluj",,university,46.779407,23.618435,Romania,RO
http://www.wikidata.org/entity/Q475504,Artois University,,0000 0001 2364 777X,university,50.283,2.794,France,FR
http://www.wikidata.org/entity/Q4801770,Arturo Michelena University,,,university,10.27333333,-68.00305556,Venezuela,VE
http://www.wikidata.org/entity/Q3551323,Arturo Prat University,,,university,-20.243611111111,-70.141388888889,Chile,CL
http://www.wikidata.org/entity/Q6103980,Artvin Çoruh University,,,university,41.1832,41.8325,Turkey,TR
http://www.wikidata.org/entity/Q15983491,"Arul Anandar College, Karumathur",,,university,9.93455556,77.934275,India,IN
http://www.wikidata.org/entity/Q4069144,Arzamas State Pedagogical Institute,,,university,55.39250001,43.82194445,Russia,RU
http://www.wikidata.org/entity/Q4803373,Asahi University,岐阜歯科大学,,university,35.381744,136.690556,Japan,JP
http://www.wikidata.org/entity/Q4803389,Asahikawa University,学校法人旭川大学; 北日本学院大学; 北日本大学院大学,,university,43.81691667,142.44566667,Japan,JP
http://www.wikidata.org/entity/Q4805071,Ashikaga Institute of Technology,足利工大; AIOT,,university,36.35319444,139.39705556,Japan,JP
http://www.wikidata.org/entity/Q4805171,Ashiya University,,,university,34.75277778,135.30713889,Japan,JP
http://www.wikidata.org/entity/Q986122,Ashland University,阿什兰大学; Ashland University; Ashland University; AU,0000 0000 9038 7878,university,40.8617,-82.3231,United States,US
http://www.wikidata.org/entity/Q4805801,Ashoka University,,,university,28.9468,77.1016,India,IN
http://www.wikidata.org/entity/Q18566699,Asia LIFE University,,,university,36.33185,127.40627,South Korea,KR
http://www.wikidata.org/entity/Q4806454,Asia Pacific University College of Technology & Innovation,,,university,3.04805556,101.6925,Malaysia,MY
http://www.wikidata.org/entity/Q16243161,Asia Pacific University College of Technology & Innovation,,,university,3.04806,101.692,Malaysia,MY
http://www.wikidata.org/entity/Q4402470,Asia University,財団法人興亜協会; 興亜協会; 亜細亜学園; 亜大; Asia University of Japan; Asia University of Japan,,university,35.70555556,139.53416667,Japan,JP
http://www.wikidata.org/entity/Q4806490,Asia University,"臺中健康暨管理學院; 台中健康暨管理學院; Asia University,Taiwan",,university,24.046941,120.68652,Taiwan,TW
http://www.wikidata.org/entity/Q303316,Asia-Pacific Institute of Creativity,,,university,24.682944444444,120.97023333333,Taiwan,TW
http://www.wikidata.org/entity/Q726793,Asia-Pacific International University,วิทยาลัยมิชชั่น; วิทยาลัยมิชชัน; Mission College,,university,14.674417,101.176869,Thailand,TH
http://www.wikidata.org/entity/Q727675,Asian Institute of Technology,Học viện Công nghệ Châu Á; AIT; เอไอที; สถาบันเทคโนโลยีแห่งเอเซีย; Asian Institute of Technology; AIT; アジアン工科大学; AIT Bangkok; Asian institute of technology,,university,14.079116666667,100.61135555556,Thailand,TH
http://www.wikidata.org/entity/Q4806742,Asian Social Institute,Panimulaan ng Lipunang Asyano; Panimulaan ng Asyanong Lipunan; Asian Social Institute,,university,14.5775,120.989,Philippines,PH
http://www.wikidata.org/entity/Q727768,Asian University,มหาวิทยาลัยแห่งเอเชีย; มหาวิทยาลัยวิทยาศาสตร์และเทคโนโลยีแห่งเอเชีย; AUST; Asian University of Science and Technology; Asian U,,university,12.84435611,101.01272106,Thailand,TH
http://www.wikidata.org/entity/Q4806765,Asian University for Women,Asian University for Women; Asian university for women,,university,22.358131,91.823843,Bangladesh,BD
http://www.wikidata.org/entity/Q4806767,Asian University of Bangladesh,Asian University of Bangladesh; Asian university of bangladesh; ইনডিপেন্ডেন্ট ইউনিভার্সিটি,,university,23.8692,90.3996,Bangladesh,BD
http://www.wikidata.org/entity/Q4807187,Askew School of Public Administration and Policy,,,university,30.4434,-84.2958,United States,US
http://www.wikidata.org/entity/Q4808370,Assam Agricultural University,Assam Agriculture University; Assam Agricultural University,,university,26.7229,94.1957,India,IN
http://www.wikidata.org/entity/Q738991,Assam University,"Department of Mass Communication, Assam University Silchar; Department of Law, Assam University; Assam University Silchar, Department of Mass Communication; Assam University Silchar, Department of Computer Science; Assam University",,university,24.6916,92.7512,India,IN
http://www.wikidata.org/entity/Q246534,Assiut University,,,university,27.18777778,31.17027778,Egypt,EG
http://www.wikidata.org/entity/Q4810374,Assumption University,,,university,42.3062,-83.0695,Canada,CA
http://www.wikidata.org/entity/Q750066,Aston University,Universite Aston; Universidad de Aston; Universität Aston; Aston Business School; Aston Universiteit,,university,52.486,-1.8895,United Kingdom,GB
http://www.wikidata.org/entity/Q3439770,Astrakhan State University,Астраханский университет; Астраханский государственный педагогический университет; Астраханский государственный педагогический институт,,university,46.3774,48.0531,Russia,RU
http://www.wikidata.org/entity/Q4811978,Aswan University,,,university,23.9989,32.8599,Egypt,EG
http://www.wikidata.org/entity/Q753778,Atatürk University,Atatürk Üniversitesi Tıp Fakültesi; Atatürk üniversitesi; Atatürk Üniversitesi; Zaningeha Ataturk; Université Atatürk; دانشگاه اتاترک; Atatürk Üniversitesi; Atatürk Universität,,university,39.9029,41.25284,Turkey,TR
http://www.wikidata.org/entity/Q7894351,Atemajac Valley University,Universidad del valle de atemajac; UNIVA,,university,20.6572,-103.42,Mexico,MX
http://www.wikidata.org/entity/Q268749,Ateneo de Davao University,,,university,7.07222222,125.61305556,Philippines,PH
http://www.wikidata.org/entity/Q533235,Ateneo de Manila University,,,university,14.638888888889,121.07777777778,Philippines,PH
http://www.wikidata.org/entity/Q3360617,Ateneo de Naga University,Ateneo de Naga University; Ateneo de Naga University; Ateneo de Naga,,university,13.63,123.18416667,Philippines,PH
http://www.wikidata.org/entity/Q3549829,Ateneo de Zamboanga University,Ateneo de Zamboanga University; Universidad del Ateneo de Zamboanga; Ateneo de Zamboanga; Universidad del Ateneo de Zamboanga,,university,6.86666667,122.06666667,Philippines,PH
http://www.wikidata.org/entity/Q754656,Athabasca University,阿薩巴斯卡大學; Athabasca University,,university,54.722397222222,-113.30338611111,Canada,CA
http://www.wikidata.org/entity/Q4813522,Athens Technical College,,,university,33.9894,-83.3397,United States,US
http://www.wikidata.org/entity/Q1474656,Athens University of Economics and Business,アテネ経済大学; ΟΠΑ; ΑΣΟΕΕ,0000 0001 2179 8267,university,37.993888888889,23.732222222222,Greece,GR
http://www.wikidata.org/entity/Q4815854,Atish Dipankar University of Science and Technology,Atish Dipankar University of Science and Technology; Atish dipankar university of science and technology; ইনডিপেন্ডেন্ট ইউনিভার্সিটি,,university,23.7978,90.353,Bangladesh,BD
http://www.wikidata.org/entity/Q4816162,Atlanta Technical College,Atlanta Technical Institute; Atlanta Area Tech,,university,33.7119,-84.4073,United States,US
http://www.wikidata.org/entity/Q4816174,Atlanta University Center,,,university,33.749,-84.411,United States,US
http://www.wikidata.org/entity/Q4816580,Atlantic University,,,university,36.8927,-75.9902,United States,US
http://www.wikidata.org/entity/Q3551540,Atomi University,跡見女子大学,,university,35.81711111,139.54291667,Japan,JP
http://www.wikidata.org/entity/Q3321507,Atılım University,دانشگاه اتیلیم,,university,39.81351,32.72368,Turkey,TR
http://www.wikidata.org/entity/Q540672,Auburn University,奧本大學; 奧本大學; AU; AUM,,university,32.603374,-85.486078,United States,US
http://www.wikidata.org/entity/Q758560,Auburn University at Montgomery,歐本大學蒙哥马利分校; 奧本大學蒙哥馬利分校; Auburn University Montgomery; Auburn Montgomery; AUM,,university,32.368779,-86.177036,United States,US
http://www.wikidata.org/entity/Q758659,Auckland University of Technology,오클랜드 공대; AUT University; AUT; Seddon Memorial Technical College; AUT University; Auckland Technical School,,university,-36.8533,174.7667,New Zealand,NZ
http://www.wikidata.org/entity/Q760516,Augsburg College,,,university,44.9659,-93.2416,United States,US
http://www.wikidata.org/entity/Q14432001,Augusta State University,,,university,33.4768,-82.023,United States,US
http://www.wikidata.org/entity/Q3298397,Augustana University,Augustana of South Dakota; Augustana College (SD); Augustana College; Augustana (South Dakota); Augustana (SD); Augie,,university,43.526861111111,-96.737027777778,United States,US
http://www.wikidata.org/entity/Q4822213,Aurel Vlaicu University of Arad,Universitatea Aurel Vlaicu; UAV,,university,46.17363889,21.31713889,Romania,RO
http://www.wikidata.org/entity/Q4822312,Aureus University School of Medicine,,,university,12.50674444,-70.00660556,Aruba,AW
http://www.wikidata.org/entity/Q4822428,Auro University of Hospitality and Management,,,university,21.1796,72.7348,India,IN
http://www.wikidata.org/entity/Q11959672,Aurora University,,,university,41.754722,-88.347778,United States,US
http://www.wikidata.org/entity/Q4823013,Austin Center for Design,,,university,30.276129,-97.716059,United States,US
http://www.wikidata.org/entity/Q781153,Austin Peay State University,دانشگاه دولتی استین پی; دانشگاه دولتی آستین پی; دانشگاه ایالتی استین پی; APSU,,university,36.5323,-87.3546,United States,US
http://www.wikidata.org/entity/Q781371,Australian Catholic University,ACU National; 澳大利亞天主教大學; ACU National; オーストラリア・カトリック大学; Universitas katolik australia; Australian Catholic University; Australische Katholische Universität; ACU,,university,-27.378,153.089,Australia,AU
http://www.wikidata.org/entity/Q4824397,Australian Lutheran College,,,university,-34.909141,138.592774,Australia,AU
http://www.wikidata.org/entity/Q127990,Australian National University,澳洲國立大學; 澳洲國家大學; 澳洲国立大学; Australian National University; ANU; Australian National University; Đại học Quốc gia Australia; Національний університет Австралії; Avustralya Ulusal Üniversitesi; The Australian National University; Australian National University; ANU; The Australian National University; ANU; Australian National University; Universidade Nacional Australiana; Australian National University; 호주국립대학교; 호주 국립 대학교; 오스트레일리아 국립대학교; Università nazionale australiana; Australian National University; האוניברסיטה הלאומית האוסטרלית; האוניברסיטה האוסטרלית הלאומית; Universite nationale australienne; Australian National University; Australian National University; Austraalia Riiklik Ülikool; Austraalia Rahva Ülikool; ANU; Universidad nacional de australia; The Australian National University; Australian National University; The Australian National University; Phoenix Prize for Spiritual Art; ANU; Australische Nationaluniversität,,university,-35.2778,149.1205,Australia,AU
http://www.wikidata.org/entity/Q18712774,Automotive Dealership Institute,,,university,33.532337,-111.925168,United States,US
http://www.wikidata.org/entity/Q4826820,Autonomous University of Aguascalientes,Universidad Autonoma de Aguascalientes; UAA; UAA,,university,21.913380555556,-102.315025,Mexico,MX
http://www.wikidata.org/entity/Q4826824,Autonomous University of Baja California,Universidade autônoma da baja california; Universidade Autónoma da Baja California; Universidade autónoma da baja california; Universidad Autónoma de Baja California; Universidad autónoma de baja california; Universidad Autónoma de Baja California; Universidad Autonoma de Baja California; Autonome Universiteit van Neder-Californië; Autonome Universiteit van Neder-Californie; バハカリフォルニア大学; Universidad Autonoma de Baja California; University of Baja California; UABC,,university,32.6634,-115.469,United States,US
http://www.wikidata.org/entity/Q4826823,Autonomous University of Baja California Sur,Universidad Autonoma de Baja California Sur; UABCS,,university,24.100874,-110.315121,Mexico,MX
http://www.wikidata.org/entity/Q4826817,"Autonomous University of Baja California, Campus Mexicali",,,university,32.632199,-115.444435,Mexico,MX
http://www.wikidata.org/entity/Q43452,Autonomous University of Barcelona,UAB; Universitat Autònoma de Barcelona; Computer Vision Center; Universidad Autónoma de Barcelona; UAB,,university,41.500277777778,2.1077777777778,Spain,ES
http://www.wikidata.org/entity/Q4826828,Autonomous University of Campeche,Universidad Autonoma de Campeche,,university,19.8275,-90.55583333,Mexico,MX
http://www.wikidata.org/entity/Q4826829,Autonomous University of Chihuahua,Universidad Autonoma de Chihuahua,,university,28.655204,-106.087289,Mexico,MX
http://www.wikidata.org/entity/Q4826832,Autonomous University of Coahuila,Universidad Autonoma de Coahuila; UAdeC; UA de C; U.A. de C.; U A. de C.; U A de C.; U A de C,,university,26.9457,-101.416,Mexico,MX
http://www.wikidata.org/entity/Q6156357,Autonomous University of Durango,,,university,24.04795278,-104.6314944,Mexico,MX
http://www.wikidata.org/entity/Q788091,Autonomous University of Madrid,มหาวิทยาลัยเอาโตโนมาแห่งมาดริด; Universidade Autônoma de Madri; Universidad Autónoma de Madrid; UAM; la Autónoma; Universidad Autónoma de Madrid; Universidad Autonoma de Madrid; Università autonoma di Madrid; UAM; Université Autonome de Madrid; Universite autonome de Madrid; Universidad Autónoma de Madrid; Universidad Autonoma de Madrid; UAM; Universidad de Canto Blanco; Universidad Autonoma de Madrid; Universidad Autónoma de Madrid; Universidad Autónoma de Madrid; la Autónoma; Universidad Autónoma de Madrid; Universidad Autónoma de Madrid; جامعة مدريد المستقلة; UAM,0000 0001 1957 8126,university,40.5453,-3.69611,Spain,ES
http://www.wikidata.org/entity/Q4826833,Autonomous University of Nayarit,Universidad Autonoma de Nayarit; UAN; Federación de Estudiantes de la Universidad Autónoma de Nayarit,,university,21.49194444,-104.89194444,Mexico,MX
http://www.wikidata.org/entity/Q2879544,Autonomous University of Queretaro,,,university,20.591046,-100.410127,Mexico,MX
http://www.wikidata.org/entity/Q4826834,Autonomous University of Sinaloa,Universidad Autonoma de Sinaloa,,university,24.82555556,-107.38138889,Mexico,MX
http://www.wikidata.org/entity/Q4826836,Autonomous University of Tamaulipas,Universidad Autonoma de Tamaulipas; UAT,,university,22.276151,-97.86296,Mexico,MX
http://www.wikidata.org/entity/Q2495682,Autonomous University of Tlaxcala,UATX; UATx,,university,19.302203,-98.243405,Mexico,MX
http://www.wikidata.org/entity/Q1266514,Autonomous University of Zacatecas,,,university,22.773064,-102.575131,Mexico,MX
http://www.wikidata.org/entity/Q542498,Ave Maria University,AMU,,university,26.3363,-81.438,United States,US
http://www.wikidata.org/entity/Q4828300,Averett University,AU,,university,36.5789,-79.4122,United States,US
http://www.wikidata.org/entity/Q4828842,Avila University,,,university,38.9126,-94.5915,United States,US
http://www.wikidata.org/entity/Q19882172,Avinash College of Commerce,,,university,17.4148,78.4017,India,IN
http://www.wikidata.org/entity/Q6091376,Avrasya University,,,university,40.9924,39.7684,Turkey,TR
http://www.wikidata.org/entity/Q5838804,Ayotzinapa Rural Teachers’ College,Escuela Normal Rural Raúl Isidro Burgos; Raúl Isidro Burgos Rural Teachers’ College,,university,17.55333333,-99.41027778,Mexico,MX
http://www.wikidata.org/entity/Q19882181,Ayush & Health Sciences University Chhattisgarh,,,university,21.246,81.605,India,IN
http://www.wikidata.org/entity/Q4832013,Azabu University,麻布獣医科大学; 麻布獣医畜産専門学校; 麻布獣医畜産学校; 麻布獣医専門学校; 麻布獣医学校; 東京獣医講習所,,university,35.575,139.38833333,Japan,JP
http://www.wikidata.org/entity/Q18385303,Azad Jammu and Kashmir Medical College,,,university,34.21,73.28,Pakistan,PK
http://www.wikidata.org/entity/Q4832063,Azad University Tehran medical Branch,دانشگاه ازاد تهران پزشکی; دانشگاه ازاد اسلامی واحد تهران پزشکی; دانشگاه ازاد اسلامی واحد پزشکی تهران; دانشگاه ازاد اسلامی تهران پزشکی; دانشگاه آزاد تهران پزشکی; دانشگاه آزاد اسلامی واحد تهران پزشکی; دانشگاه آزاد اسلامی تهران پزشکی,,university,35.777714,51.433736,Iran,IR
http://www.wikidata.org/entity/Q4832261,Azarbaijan Shahid Madani University,دانشگاه شهید مدنی اذربایجان; دانشگاه شهید مدنی; دانشگاه تربیت معلم اذربایجان; دانشگاه تربیت معلم آذربایجان; دانشگاه اذربایجان; دانشگاه اذران; دانشگاه آذربایجان; دانشگاه آذران; تربیت معلم اذربایجان; تربیت معلم آذربایجان; شهید مدنی دانشگاهی; آذربایجان دانشگاهی; آذربایجان بیلیم‌یوردو; آذربایجان دانشگاهی; آذربایجان بیلیم‌یوردو,,university,37.81235,45.94894167,Iran,IR
http://www.wikidata.org/entity/Q4832385,Azerbaijan Diplomatic Academy,Azərbaycan Respublikası Xarici İşlər Nazirliyinin Diplomatik Akademiyası,,university,40.3946,49.8492,Azerbaijan,AZ
http://www.wikidata.org/entity/Q724207,Azerbaijan State Oil Academy,Бакинський інститут нафти і газу; Bakü Devlet Petrol Akademisi; Azerbaycan devlet petrol akademisi; Azerbaycan Devlet Neft Akademisi; Бакинский институт нефти и газа; Азинефтехим; АЗИ; Азербайджанский нефтяной институт; Азербайджанский институт нефти и химии им. М. Азизбекова; Азербайджанский институт нефти и химии; Азербайджанский индустриальный институт; Азербайджанская Государственная Нефтяная Академия; АГНА; Мәлібеков атындағы Әзірбайжан мұнай және химия институты; Баку мұнай институты; Әмма; Әзірбайжан мұнай институты; Әзірбайжан мұнай және химия институты; Әзірбайжан Мемлекеттік Мұнай Академиясы; Aserbaidschanisches Institut für Industrie; Aserbaidschanische Staatliche Akademie für Erdöl und Erdgas; Neft Akademiyası; Azərbaycan Sənaye İnstitutu; Azərbaycan Neft və Kimya İnstitutu; Azərbaycan Dövlət Neft Akademiyası; ADNA,,university,40.3785,49.8485,Azerbaijan,AZ
http://www.wikidata.org/entity/Q4583636,Azusa Pacific University,Asuza Pasific University; دانشگاه ازوزا پاسیفیک,,university,34.12971,-117.88888,United States,US
http://www.wikidata.org/entity/Q3674354,Ağrı İbrahim Çeçen University,Ağrı Üniversitesi; Ağrı Eğitim Fakültesi; Ağrı Dağı Üniversitesi; Zanîngeha Îbrahîm Çeçen a Agiriyê; ICUA; Ağrı Dağı University,,university,39.7178,43.0271,Turkey,TR
http://www.wikidata.org/entity/Q4834154,B. R. Ambedkar Bihar University,Babasaheb Bhimrao Ambedkar Bihar University,,university,26.1131,85.375,India,IN
http://www.wikidata.org/entity/Q4836273,BPP University,,,university,51.505,-0.223056,United Kingdom,GB
http://www.wikidata.org/entity/Q4836325,BRAC University,BRACU; BRAC University; Bangladesh Rural Advancement Committee University; ইনডিপেন্ডেন্ট ইউনিভার্সিটি,0000 0001 0746 8691,university,23.78019444,90.407175,Bangladesh,BD
http://www.wikidata.org/entity/Q4837298,Baba Ghulam Shah Badshah University,,,university,33.3938,74.3433,India,IN
http://www.wikidata.org/entity/Q16252473,"Baba Jagan Nath University, NCR",,,university,28.6256,76.7477,India,IN
http://www.wikidata.org/entity/Q538452,Babeș-Bolyai University,バベシュ・ボリャイ大学クルジュ; バベシュ=ボーヤイ大学; 克魯日巴比什-波雅依大學; Клушки универзитет; Universitatea Babeș-Bolyai; Universitatea Babes-Bolyai; UBB,0000 0004 1937 1397,university,46.767777777778,23.591111111111,Romania,RO
http://www.wikidata.org/entity/Q19456983,Bacha Khan University,"Университет Бача Хана; Университет Бача Хан; Bacha Khan University, Charsadda",,university,34.136916666667,71.83825,Pakistan,PK
http://www.wikidata.org/entity/Q18844652,Badakhshan University,,,university,37.10088,70.5562,Afghanistan,AF
http://www.wikidata.org/entity/Q625952,Baekseok University,천안대학교; 천안대; 백석대; 기독신학교,,university,36.84021,127.18322,South Korea,KR
http://www.wikidata.org/entity/Q4841812,Baghdad College for Economic Sciences University,كليه بغداد للعلوم الاقتصاديه الجامعه,,university,33.34083333,44.33472222,Iraq,IQ
http://www.wikidata.org/entity/Q1448977,Baghdad Pharmacy College,كليه بغداد للصيدله,,university,33.3497143,44.382707,Iraq,IQ
http://www.wikidata.org/entity/Q4842499,Bahauddin Zakariya University,,,university,30.26361111,71.50972222,Pakistan,PK
http://www.wikidata.org/entity/Q10387910,Bahia State University,Universidade do estado da bahia; UNEB; Uneb; Museu de ciência e tecnologia da uneb,,university,-23.55,-46.6333,Brazil,BR
http://www.wikidata.org/entity/Q4842757,Bahrain Polytechnic,,,university,26.165,50.54555556,Bahrain,BH
http://www.wikidata.org/entity/Q4843246,Baika Women's University,,,university,34.84305556,135.53527778,Japan,JP
http://www.wikidata.org/entity/Q4849228,Baker University,Baker U; BU; Baker,,university,38.7775,-95.187777777778,United States,US
http://www.wikidata.org/entity/Q4076325,"Balakovo Institute of Engineering, Technology and Management",БИТТУ,,university,52.02105557,47.77125001,Russia,RU
http://www.wikidata.org/entity/Q1805202,Baldwin Wallace University,Колледж Болдуина-Уоллеса; Институт Болдуина; Baldwin-Wallace College; Baldwin Wallace University; Baldwin-Wallace College; Baldwin-Wallace College; Baldwin-Wallace College; Baldwin-Wallace; Baldwin Wallace,,university,41.371111111111,-81.847777777778,United States,US
http://www.wikidata.org/entity/Q18110129,Baliapara High School And College,,,university,23.8235,89.1065,Bangladesh,BD
http://www.wikidata.org/entity/Q805122,Ball State University,Ball State University; Ball State University; ボール州立大学; Universidad Ball State; Digital Media Repository; Ball U; BSU,,university,40.1983,-85.4089,United States,US
http://www.wikidata.org/entity/Q3151718,Balseiro Institute,Balseiro,,university,-41.16583333,-71.44416667,Argentina,AR
http://www.wikidata.org/entity/Q4076909,Baltic International Academy,Балтийская Международная Академия; BSA; Baltijas Krievu institūts; Baltic Russian Institute,,university,56.9378,24.1558,Latvia,LV
http://www.wikidata.org/entity/Q565742,Baltic University,,,university,53.6431,9.78667,Germany,DE
http://www.wikidata.org/entity/Q824493,Banat University of Agricultural Sciences and Veterinary Medicine,USAMVBT; Universitatea de Ştiinţe Agricole şi Medicină Veterinară a Banatului din Timişoara; Universitatea de Științe Agricole și Medicină Veterinară a Banatului; Universitatea de Ştiinţe Agricole şi Medicină Veterinară a Banatului; Universite des sciences agricoles du Banat; USABT,,university,45.782676,21.216778,Romania,RO
http://www.wikidata.org/entity/Q4855002,Bangabandhu Sheikh Mujibur Rahman Science and Technology University,,,university,22.9661,89.8171,Bangladesh,BD
http://www.wikidata.org/entity/Q4855004,Bangabandhu Textile Engineering College,,,university,24.3759,89.9693,Bangladesh,BD
http://www.wikidata.org/entity/Q3519221,Bangalore University,బెంగుళూరు యూనివర్సిటీ; बंगलुरु विश्वविद्यालय; BU,,university,12.938775,77.50318056,India,IN
http://www.wikidata.org/entity/Q806480,Bangkok University,หอสมุดสุรัตน์ โอสถานุเคราะห์; วิทยาลัยกรุงเทพ; ม.กรุงเทพ,,university,13.71141667,100.58190833,Thailand,TH
http://www.wikidata.org/entity/Q4855238,Bangkokthonburi University,วิทยาลัยกรุงเทพธนบุรี; มหาวิทยาลัยกรุงเทพธนบุรี วิทยาเขตจอมทอง,,university,13.766522,100.346503,Thailand,TH
http://www.wikidata.org/entity/Q4855260,Bangladesh Agricultural Research Institute,,,university,24.369122,88.66175,Bangladesh,BD
http://www.wikidata.org/entity/Q4855264,Bangladesh Agricultural University,Bangladesh Agriculture University; Bangladesh Agricultural University; Bangladesh agricultural university,,university,24.722,90.4267,Bangladesh,BD
http://www.wikidata.org/entity/Q4855286,Bangladesh College of Physicians and Surgeons,,,university,23.7775,90.3988,Bangladesh,BD
http://www.wikidata.org/entity/Q4855292,Bangladesh Computer Society,,,university,22.808409,89.556247,Bangladesh,BD
http://www.wikidata.org/entity/Q19358493,"Bangladesh Home Economics College, Dhaka",,,university,23.7529,90.3875,Bangladesh,BD
http://www.wikidata.org/entity/Q4855322,Bangladesh Islami University,,,university,23.7212,90.4287,Bangladesh,BD
http://www.wikidata.org/entity/Q19358230,Bangladesh Marine Academy,,,university,22.2426,91.8391,Bangladesh,BD
http://www.wikidata.org/entity/Q18356484,Bangladesh Sweden Polytechnic Institute,,,university,22.505678,92.211985,Bangladesh,BD
http://www.wikidata.org/entity/Q4855389,Bangladesh University,Bangladesh University; ইনডিপেন্ডেন্ট ইউনিভার্সিটি,,university,23.7629,90.3674,Bangladesh,BD
http://www.wikidata.org/entity/Q4855390,Bangladesh University of Business and Technology,বাংলাদেশ ব্যবসায় ও প্রযুক্তি বিশ্ববিদ্যালয়; Bangladesh University of Business and Technology; Bangladesh university of business and technology; ইনডিপেন্ডেন্ট ইউনিভার্সিটি,,university,23.8065,90.3522,Bangladesh,BD
http://www.wikidata.org/entity/Q506330,Bangladesh University of Engineering and Technology,"BUET; বুয়েট; বাংলাদেশ প্রকৌশল এবং প্রযুক্তি বিশ্ববিদ্যালয়; পানি সম্পদ কৌশল বিভাগ, বাংলাদেশ প্রকৌশল বিশ্ববিদ্যালয়; আহসানউল্লাহ ইঞ্জিনিয়ারিং কলেজ",,university,23.726996,90.392858,Bangladesh,BD
http://www.wikidata.org/entity/Q4855391,Bangladesh University of Textiles,College of Textile Engineering and Technology,,university,23.7604,90.4001,Bangladesh,BD
http://www.wikidata.org/entity/Q790029,Bangor University,"University of Wales at Bangor; University College of North Wales; バンゴア大学; バンガー大学; 班格爾大學; Бангорський Університет; Bangor University; Bangorreko Unibertsitatea; Universidad de bangor; Prifysgol Cymru, Bangor; Prifysgol Cymru Bangor; Coleg Prifysgol Gogledd Cymru; Coleg Prifysgol Cymru, Bangor; Bangorská universita; Bangor University",,university,53.2289,-4.1301,United Kingdom,GB
http://www.wikidata.org/entity/Q4856328,Banking University of Ho Chi Minh City,Đại học Ngân hàng Thành phố Hồ Chí Minh,,university,10.8584,106.763,Vietnam,VN
http://www.wikidata.org/entity/Q1124657,Bar-Ilan University,Университет им. Бар-Илана; Университет Бар-Илана; Университет Бар-Илан; Бар-Иланский университет; Universidade bar ilan; Bar-Ilan-universiteit; Bar-Ilan University; Bar-Ilan Universiteit; Bar-Ilan; Bar Ilan Universiteit; バル・イラン大学; Universitas Bar-Ilan; Bar-Ilan University; אוניברסיטת בר אילן; אוניברסיטה בר-אילן; Université de Bar-Ilan; Université de Bar Ilan; Universite Bar-Ilan; Université Bar Ilan; Bar-Ilan; Bar Ilan; دانشگاه مذهبی برایلان; دانشگاه بارایلان; Universidad de Bar-Ilan; Universidad Bar Ilan; Bar Ilan University; Universität Bar-Ilan; Bar-Ilan University; Univerzita Bar Ilan; Bar Ilanova univerzita; جامعه بار إيلان,,university,32.067777777778,34.8425,Israel,IL
http://www.wikidata.org/entity/Q946573,Baranovichi State University,,,university,53.124642,26.039899,Belarus,BY
http://www.wikidata.org/entity/Q4860796,Barisal Polytechnic Institute,,,university,22.697675,90.361302,Bangladesh,BD
http://www.wikidata.org/entity/Q809106,Barry University,生死邊緣,,university,25.878836111111,-80.197269444444,United States,US
http://www.wikidata.org/entity/Q4080163,Bashkir State Agrarian University,БСХИ; БГАУ; Башкирский сельскохозяйственный институт; Башкирский Государственный Аграрный Университет,,university,55.8575,37.691943888889,Russia,RU
http://www.wikidata.org/entity/Q4868388,Bastyr University,,,university,47.7304,-122.253,United States,US
http://www.wikidata.org/entity/Q810771,Bates College,Bates college; Bates college; Bates college; ベイツカレッジ; Batesin yliopisto; Bates college; Bates,,university,44.105555555556,-70.204166666667,United States,US
http://www.wikidata.org/entity/Q3091754,Bath Spa University,Universite de Bath Spa; Bath Spa University College; Bath College of Higher Education,,university,51.375555555556,-2.4383333333333,United Kingdom,GB
http://www.wikidata.org/entity/Q6859802,Batman University,,,university,37.78893889,41.06496667,Turkey,TR
http://www.wikidata.org/entity/Q1155788,Batumi State Maritime Academy,ბსსა,,university,41.646983,41.621786,Georgia,GE
http://www.wikidata.org/entity/Q573975,Bauhaus University,"ヴァイマール建築大学; 包豪斯大學; Bauhaus-Universitat Weimar; Weimarer Hochschule für Bildende Kunst; Staatliche Hochschulen für Baukunst, bildende Künste und Handwerk Weimar; Hochschulen für Baukunst, bildende Künste und Handwerk Weimar; Hochschule für Baukunst und Bildende Künste Weimar; Hochschule für Architektur und Bauwesen Weimar; Bauhaus-Universität; Bauhaus Universität Weimar",,university,50.9745,11.3291,Germany,DE
http://www.wikidata.org/entity/Q1472245,Bauman Moscow State Technical University,"バウマン名称モスクワ技術大学; N.E.バウマン記念モスクワ国立工科大学; バウマン記念モスクワ国立工科大学; バウマンモスクワ高等技術学校; バウマン・モスクワ工科大学; 鲍曼高等工业学院; 鲍曼莫斯科国立理工大学; 鲍曼工学院; 包曼工学院; Đại học Tổng hợp Kỹ thuật Quốc gia Moskva mang tên Bau man; Đại học Tổng hợp Kỹ thuật Quốc gia Moskva; Đại học Tổng hợp Kỹ thuật Moskva; Đại học kỹ thuật quốc gia mang tên Bauman; Đại học Kỹ thuật Quốc gia Bau-man; Đại học Kỹ thuật Moskva Bau-man; Đại học Kỹ thuật Bau-man; Московський державний технічний університет імені М. Е. Баумана; МДТУ ім. Баумана; МДТУ; МВТУ ім. М.Баумана; МВТУ ім. Баумана; МВТУ; Вище технічне училище імені Баумана; Московское высшее техническое училище имени Н. Э. Баумана; Московское высшее техническое училище имени Баумана; Московский механико-машиностроительный институт имени Н. Э. Баумана; Московский механико-машиностроительный институт им. Н. Э. Баумана; Московский государственный технический университет им. Н. Э. Баумана; МГТУ имени Баумана; МГТУ им. Н.Э. Баумана; МГТУ им. Н. Э. Баумана; МГТУ им. Баумана; МГТУ; МВТУ имени Н. Э. Баумана; МВТУ имени Баумана; МВТУ им. Н.Э. Баумана; ИМТУ; Бауманка; Staats-Technische Universiteit van Moskou; MSTU Bauman; MSTU; Bauman MSTU; Université technique de Moscou; Université technique d'État moscovite Bauman; Université technique d'État moscovite; Université technique d'État de Moscou - Ecole Bauman; Université technique d'état de moscou; Universite Technique d'Etat de Moscou; BMSTU; Moskovan teknillinen yliopisto N.E.Bauman; MSTU; Московски държавен технически университет ""Бауман""",,university,55.765833333333,37.684722222222,Russia,RU
http://www.wikidata.org/entity/Q3511498,Bayero University Kano,Bayero University,,university,11.98055556,8.47944444,Nigeria,NG
http://www.wikidata.org/entity/Q4874546,Baykal State University,БГУ; Факультет экономики предприятия и предпринимательской деятельности БГУЭП; Факультет Мировой Экономики БГУЭП; Факультет мировой экономики БГУЭП; Иркутский институт народного хозяйства,,university,52.28055556,104.2827778,Russia,RU
http://www.wikidata.org/entity/Q4874603,Baylor Law School,,,university,31.5545,-97.1154,United States,US
http://www.wikidata.org/entity/Q812573,Baylor University,ベイラー・ロースクール; 贝勒大学; Бэйлорский университет; Baylor University; Universidade de Baylor; Universidade de baylor; Baylor University; Uniwersytet Baylor; Waco University; Università di Baylor; Université de Baylor; Baylor Institute for Faith and Learning,0000 0001 2111 2894,university,31.5472,-97.1139,United States,US
http://www.wikidata.org/entity/Q170171,Başkent University,Universidade de Başkent; Universidade Baskent; Başkent Üniversitesi; Başkent-universitetet; Başkent University,,university,39.8875,32.653889,Turkey,TR
http://www.wikidata.org/entity/Q4880622,Begum Gulchemonara Trust University,বেগম গুলশেনার ট্রাস্ট ইউনিভার্সিটি; Begum Gulchemonara Trust University; ইনডিপেন্ডেন্ট ইউনিভার্সিটি,,university,22.360157,91.827651,Bangladesh,BD
http://www.wikidata.org/entity/Q4880626,"Begumgonj Textile Engineering College, Noakhali",,,university,22.942645,91.105499,Bangladesh,BD
http://www.wikidata.org/entity/Q2299797,Beihang University,北京航空航天大學; 北京航空学院; Buaa; Пекинский университет авиации и космонавтики; Universite d'aeronautique et d'astronautique de Pekin; Université Beihang; BUAA; Beihang; Universität für Raum- und Luftfahrt Peking; École centrale de Pékin; Beihang-Universität,,university,39.98,116.34083333333,China,CN
http://www.wikidata.org/entity/Q1144682,Beijing Foreign Studies University,延安外国语学校; 华北大学二部; 北外; 北京外国语学院; 北京外国语学校; 北京俄語學院; BFSU; Beijings Institut för Främmande Språk; Beiwai; Beijing Waigoyu Daxue; Beijing universitet for utenlandsstudier; 北京外国語学院; Universidad de Lenguas Extranjeras de Pekin; Universidad de Estudios Extranjeros de Pekin; Universidad de Estudios Extranjeros; Beijing Foreign Studies University; Fremdsprachenuniversität Peking; Fremdsprachenuniversität Beijing; Fremdspracheninstitut Beijing; Beijinger Fremdsprachenuniversität; Beijing Foreign Studies University; Beijing Foreign Studies Universitet,,university,39.954166666667,116.30416666667,China,CN
http://www.wikidata.org/entity/Q957715,Beijing Information Science & Technology University,,,university,40.03722222,116.34027778,China,CN
http://www.wikidata.org/entity/Q23101,Beijing Institute of Technology,北京理工大学; 北京工业学院; Institut technologique de Pékin; BIT; Beijing Institute of Technology,,university,39.957777777778,116.30833333333,China,CN
http://www.wikidata.org/entity/Q233300,Beijing International Studies University,北京第二外国語学院,,university,39.909286,116.557699,China,CN
http://www.wikidata.org/entity/Q4587760,Beijing Jiaotong University,北方交通大学; 北京铁道学院; 北京交大; Beijing Jiaotong-universitet; 交通大学北京学校,,university,40.000555555556,116.32611111111,China,CN
http://www.wikidata.org/entity/Q549697,Beijing Language and Culture University,語言大學; 語言大學; 北京语言学院; 北京語言大學; 북경어언대학; 베이징 위옌 대학; 베이징 언어 대학; 베이징 어언대학; 베이징 어언 대학; 語言学院; 北京語言文化大学; 北京語言学院; 北京言語大学; BLCU; Blcu; Beijing Language and Culture University; Sprachen- und Kultur-Universität Peking; Pekinger Sprachen Universität; BLCU; Beijing Language and Culture University; Beiyu,,university,39.993333333333,116.33777777778,China,CN
http://www.wikidata.org/entity/Q1604022,Beijing Normal University,Pekin Universiteti,,university,39.957222222222,116.3625,China,CN
http://www.wikidata.org/entity/Q4881177,Beijing People's Police College,北平市人民政府公安局公安學校; 北平市人民政府公安局公安学校; 北京市公安學校; 北京市公安学校; 北京市人民警察學校; 北京市人民警察学校; 北京人民警察學院; 北京人民警察学院,,university,40.249649,116.172592,China,CN
http://www.wikidata.org/entity/Q3551745,Beijing Sport University,北京体育学院,,university,40.0299048,116.3192935,China,CN
http://www.wikidata.org/entity/Q2496210,Beijing University of Chemical Technology,北京化工学院; BUCT,,university,39.968888888889,116.41527777778,China,CN
http://www.wikidata.org/entity/Q18640769,Beijing University of International Business and Economics,贸大; 经贸大学; 经贸大; 对外经贸大学; 外经贸; UIBE; Beijing Institute of Foreign Trade,,university,39.9792,116.421,China,CN
http://www.wikidata.org/entity/Q4881210,Beijing University of Posts and Telecommunications,北邮; 北京邮电学院,,university,39.9598,116.352,China,CN
http://www.wikidata.org/entity/Q1674548,Beijing University of Technology,,,university,39.87111111,116.4775,China,CN
http://www.wikidata.org/entity/Q2778441,Beirut Arab University,Đại học Beirut Arab; جامعه بيروت العربيه; جامعة بيروت العربية; جامعة بيروت,,university,33.8733,35.4969,Lebanon,LB
http://www.wikidata.org/entity/Q2385041,Belarusian Agricultural Academy,Горыгорецкое земледельческое училище; Горыгорецкий земледельческий институт; Белорусская государственная сельскохозяйственная академия; Białoruska Państwowa Akademia Gospodarki Wiejskiej; Białoruska Akademia Rolnicza w Horkach; Горы-Горацкі земляробчы інстытут; Горацкі сельскагаспадарчы інстытут; БСГІ; БСГА; Беларускі сельскагаспадарчы інстытут; Беларуская сельскагаспадарчая акадэмія; БДСГА; Горы-Горацкі сельскагаспадарчы інстытут; Горы-Горацкі земляробчы інстытут; Горацкі інстытут; Горацкая сельгаспадарчая акадэмія; БСГА; Беларуская сельскагаспадарчая акадэмія; БДСГА; Горыгорецкая земледельческая школа; БГСХА,,university,54.296388888889,30.989166666667,Belarus,BY
http://www.wikidata.org/entity/Q815268,Belarusian National Technical University,Мінський політехнічний інститут; БНТУ; Белорусский политехнический институт им. И. В. Сталина; Белорусский политехнический институт; Белорусский государственный политехнический институт; Белорусская государственная политехническая академия; БГПИ — БГПА — БНТУ; БГПА; Weißrussische Nationale Technische Universität; Weissrussische Nationale Technische Universität; БПІ; БНТУ; Беларускі політэхнічны інстытут; Беларускі палітэхнічны інстытут; Беларускі Нацыянальны Тэхнічны Ўнівэрсытэт; Беларуская дзяржаўная політэхнічная акадэмія; БДПА; БПІ; БНТУ; Беларускі політэхнічны інстытут; Беларускі палітэхнічны інстытут; Беларускі нацыянальны тэхнічны універсітэт; Беларускі дзяржаўны палітэхнічны інстытут,,university,53.92083333,27.59277778,Belarus,BY
http://www.wikidata.org/entity/Q1975956,Belarusian State Academy of Arts,Минский театральный институт; БТХИ; Белорусский театрально-художественный институт; Белорусский государственный театрально-художественный институт; БГТХИ; БГАИ; Беларускі дзяржаўны тэатральна-мастацкі інстытут; Беларуская акадэмія мастацтваў; БДАМ; Мінскі тэатральны інстытут; Мінскі мастацкі інстытут; Беларускі тэатральна-мастацкі інстытут; Беларускі дзяржаўны тэатральны інстытут; Беларускі дзяржаўны тэатральна-мастацкі інстытут; Беларуская акадэмія мастацтваў,,university,53.92277778,27.60111111,Belarus,BY
http://www.wikidata.org/entity/Q2032304,Belarusian State Academy of Music,Білоруська консерваторія; Білоруська державна консерваторія; Минская консерватория; Белорусская консерватория; Белорусская государственная консерватория; БГАМ; conservatoire de Minsk; académie nationale de musique du Bélarus; académie d'état de musique du Biélorussie; Беларуская кансерваторыя; Беларуская дзяржаўная кансерваторыя; Беларуская акадэмія музыкі; БДАМ,,university,53.90277778,27.55777778,Belarus,BY
http://www.wikidata.org/entity/Q2628140,Belarusian State Economic University,Белорусский государственный институт народного хозяйства имени В. В. Куйбышева; Белорусский государственный институт народного хозяйства им. В. В. Куйбышева; Белорусский государственный институт народного хозяйства; БГЭУ; БГИНХ; Беларускі дзяржаўны інстытут народнай гаспадаркі імя В. У. Куйбышава; Беларускі дзяржаўны інстытут народнай гаспадаркі; БДЭУ; БДІНГ; Мінскі інстытут народнай гаспадаркі; Беларускі дзяржаўны эканамічны універсітэт; Беларускі дзяржаўны інстытут народнай гаспадаркі імя В. У. Куйбышава; Беларускі дзяржаўны інстытут народнай гаспадаркі ім. В. У. Куйбышава; Беларускі дзяржаўны інстытут народнай гаспадаркі; БДЭУ; БДІНГ,,university,53.87805556,27.60722222,Belarus,BY
http://www.wikidata.org/entity/Q2510885,Belarusian State Medical University,பெலாருசியன் அரசு மருத்துவ பல்கலைக்கழகம்; Белорусский медицинский институт; Мінскі медыцынскі ўніверсітэт; Мінскі медыцынскі інстытут; Беларускі дзяржаўны медыцынскі універсітэт,,university,53.86138889,27.48527778,Belarus,BY
http://www.wikidata.org/entity/Q4082750,Belarusian State Technological University,Белорусский технологический институт; Беларускі лесатэхнічны інстытут; БДТУ,,university,53.89166667,27.56,Belarus,BY
http://www.wikidata.org/entity/Q2418908,Belarusian State University,БДУ; Белдзяржуніверсітэт; Беларускі дзяржаўны універсітэт; БДУ; BGU; БДУ; Белорусский университет; Белгосуниверситет; Université d'État de Biélorussie; Belorusskij Gosudarstvennyj Universitet,,university,53.893889,27.546944,Belarus,BY
http://www.wikidata.org/entity/Q3880427,Belarusian State University Faculty of Economics,,,university,53.8989,27.5596,Belarus,BY
http://www.wikidata.org/entity/Q3646646,Belarusian State University of Culture and Arts,Белорусский университет культуры; БГУКИ; Менскі інстытут культуры; Беларускі ўнівэрсытэт культуры і мастацтва; Беларускі ўнівэрсытэт культуры; Беларускі дзяржаўны ўнівэрсытэт культуры; БДУКМ; Беларускі ўніверсітэт культуры; Беларускі дзяржаўны ўніверсітэт культуры,,university,53.88694444,27.54166667,Belarus,BY
http://www.wikidata.org/entity/Q816145,Belarusian State University of Informatics and Radioelectronics,Belarus Devlet Radyoelektronik ve Informatik Üniversitesi; Belarus devlet radyoelektronik ve informatik üniversitesi; МРТИ; Минский радиотехнический институт; Белгосуниверситет информатики и радиоэлектроники; БГУИР; BSUIR; 벨라루씨국가정보 및 무선전자종합대학; Université d'Etat de Bélarus diInformatique et de radioélectronique; Universidad Estatal Belarusa de Informática y Radioelectronica; Universidad Estatal Belarusa de Informatica y Radioelectrónica; Universidad Estatal Belarusa de Informatica y Radioelectronica; Менскі радыётэхнічны інстытут; Беларускі дзяржаўны ўнівэрсытэт інфарматыкі й радыёэлектронікі; БДУІР; БДУІіР,,university,53.917777777778,27.594722222222,Belarus,BY
http://www.wikidata.org/entity/Q3919998,Belarusian State University of Physical Training,Белорусский государственный ордена Трудового Красного Знамени институт физической культуры; БГУФК; Беларускі дзяржаўны ўніверсітэт фізічнай культуры і спорту; Беларускі дзяржаўны універсітэт фізічнай культуры,,university,53.93555556,27.48972222,Belarus,BY
http://www.wikidata.org/entity/Q1964941,Belarusian State University of Transport,БИИЖТ; БелИИЖТ; БелГУТ; БелІІЧТ; БелДУТ; Беларускі інстытут інжынераў чыгуначнага транспарту,,university,52.43222222,31.00333333,Belarus,BY
http://www.wikidata.org/entity/Q4081732,Belgorod Law Institute,,,university,50.57368001,36.56465101,Russia,RU
http://www.wikidata.org/entity/Q4081724,Belgorod State Institute of Arts and Culture,Білгородський державний інститут культури і мистецтв; Белгородский государственный институт культуры и искусств; БГИКИ; БГИИК,,university,50.57472222,36.57916667,Russia,RU
http://www.wikidata.org/entity/Q4081726,Belgorod State Technological University,Белгородский государственный технологический университет им. В. Г. Шухова; Белгородский государственный технологический университет; Белгородская государственная технологическая академия строительных материалов; Белгородская государственная технологическая академия; БГТУ им. В. Г. Шухова; БГТАСМ,,university,50.581245,36.596273,Russia,RU
http://www.wikidata.org/entity/Q2010483,Belgorod State University,Бєлгородський педагогічний інститут; БелГУ,,university,50.5941,36.5769,Russia,RU
http://www.wikidata.org/entity/Q2894666,Bellarmine University,Bellamine University,,university,38.2198,-85.703,United States,US
http://www.wikidata.org/entity/Q4883967,Bellevue University,,,university,41.1506,-95.9192,United States,US
http://www.wikidata.org/entity/Q3298359,Belmont University,Belmont University,,university,36.13553,-86.79661,United States,US
http://www.wikidata.org/entity/Q3918587,Belorussian-Russian University,Магілёўскі машынабудаўнічы інстытут; БРУ; Магілёўскі машынабудаўнічы інстытут,,university,53.907753,30.34395,Russia,RU
http://www.wikidata.org/entity/Q816377,Bemidji State University,BSU,,university,47.4818,-94.8756,United States,US
